[
  {
    "id": 1,
    "name": "清华园站",
    "address": "北京海淀区知春路大运村北航西门对面",
    "ownership": "北京铁路局",
    "type": " ",
    "category": "客运站",
    "province": "北京",
    "city": "海淀区",
    "gcjLng": 116.339398,
    "gcjLat": 39.982418,
    "wgs84Lng": 116.333229,
    "wgs84Lat": 39.981082,
    "bdLng": 116.345825,
    "bdLat": 39.988575,
    "isVip": 0.0
  },
  {
    "id": 2,
    "name": "昌平北站",
    "address": "北京市昌平区昌平北站",
    "ownership": "北京铁路局",
    "type": " ",
    "category": "客运站",
    "province": "北京",
    "city": "昌平区",
    "gcjLng": 116.233135,
    "gcjLat": 40.231278,
    "wgs84Lng": 116.227054,
    "wgs84Lat": 40.230033,
    "bdLng": 116.239566,
    "bdLat": 40.237546,
    "isVip": 0.0
  },
  {
    "id": 3,
    "name": "昌平站",
    "address": "北京市昌平区马池口下念头村",
    "ownership": "北京铁路局",
    "type": " ",
    "category": "客运站",
    "province": "北京",
    "city": "昌平区",
    "gcjLng": 116.193638,
    "gcjLat": 40.190089,
    "wgs84Lng": 116.187485,
    "wgs84Lat": 40.188802,
    "bdLng": 116.200066,
    "bdLat": 40.19639,
    "isVip": 0.0
  },
  {
    "id": 4,
    "name": "南口站",
    "address": "北京市昌平区南口镇交通街84号",
    "ownership": "北京铁路局",
    "type": " ",
    "category": "客运站",
    "province": "北京",
    "city": "昌平区",
    "gcjLng": 116.129665,
    "gcjLat": 40.239261,
    "wgs84Lng": 116.123338,
    "wgs84Lat": 40.237858,
    "bdLng": 116.136079,
    "bdLat": 40.245593,
    "isVip": 0.0
  },
  {
    "id": 5,
    "name": "官高",
    "address": "北京市昌平区南邵镇官高村",
    "ownership": "北京铁路局",
    "type": " ",
    "category": "乘降所",
    "province": "北京",
    "city": "昌平区",
    "gcjLng": 116.30933,
    "gcjLat": 40.237749,
    "wgs84Lng": 116.303196,
    "wgs84Lat": 40.236446,
    "bdLng": 116.315762,
    "bdLat": 40.243939,
    "isVip": 0.0
  },
  {
    "id": 6,
    "name": "北京东站",
    "address": "北京市朝阳区百子湾路27号",
    "ownership": "北京铁路局",
    "type": " ",
    "category": "客运站",
    "province": "北京",
    "city": "朝阳区",
    "gcjLng": 116.484666,
    "gcjLat": 39.902777,
    "wgs84Lng": 116.478602,
    "wgs84Lat": 39.90151,
    "bdLng": 116.491176,
    "bdLat": 39.908809,
    "isVip": 0.0
  },
  {
    "id": 7,
    "name": "黄村站",
    "address": "北京市大兴区黄村镇林校路",
    "ownership": "北京铁路局",
    "type": " ",
    "category": "客运站",
    "province": "北京",
    "city": "大兴区",
    "gcjLng": 116.332264,
    "gcjLat": 39.721495,
    "wgs84Lng": 116.326143,
    "wgs84Lat": 39.72019,
    "bdLng": 116.338675,
    "bdLat": 39.727654,
    "isVip": 0.0
  },
  {
    "id": 8,
    "name": "北京站",
    "address": "北京市东城区毛家湾胡同甲13号",
    "ownership": "北京铁路局",
    "type": " ",
    "category": "客运站",
    "province": "北京",
    "city": "东城区",
    "gcjLng": 116.427258,
    "gcjLat": 39.903708,
    "wgs84Lng": 116.421034,
    "wgs84Lat": 39.902318,
    "bdLng": 116.433733,
    "bdLat": 39.909791,
    "isVip": 0.0
  },
  {
    "id": 9,
    "name": "云居寺",
    "address": "北京市房山区大石窝乡云居寺火车站",
    "ownership": "北京铁路局",
    "type": " ",
    "category": "乘降所",
    "province": "北京",
    "city": "房山区",
    "gcjLng": 115.800427,
    "gcjLat": 39.621584,
    "wgs84Lng": 115.794296,
    "wgs84Lat": 39.620454,
    "bdLng": 115.806828,
    "bdLat": 39.627868,
    "isVip": 0.0
  },
  {
    "id": 10,
    "name": "孤山口",
    "address": "北京市房山区韩村河镇下中院村",
    "ownership": "北京铁路局",
    "type": " ",
    "category": "乘降所",
    "province": "北京",
    "city": "房山区",
    "gcjLng": 115.860834,
    "gcjLat": 39.637364,
    "wgs84Lng": 115.854867,
    "wgs84Lat": 39.636337,
    "bdLng": 115.867223,
    "bdLat": 39.643682,
    "isVip": 0.0
  },
  {
    "id": 11,
    "name": "平峪",
    "address": "北京市房山区平峪镇平峪火车站",
    "ownership": "北京铁路局",
    "type": " ",
    "category": "乘降所",
    "province": "北京",
    "city": "房山区",
    "gcjLng": 115.552253,
    "gcjLat": 39.666478,
    "wgs84Lng": 115.546157,
    "wgs84Lat": 39.66544,
    "bdLng": 115.558734,
    "bdLat": 39.672542,
    "isVip": 0.0
  },
  {
    "id": 12,
    "name": "南观村",
    "address": "北京市房山区青龙湖镇南观村火车站",
    "ownership": "北京铁路局",
    "type": " ",
    "category": "乘降所",
    "province": "北京",
    "city": "房山区",
    "gcjLng": 116.002952,
    "gcjLat": 39.773374,
    "wgs84Lng": 115.996829,
    "wgs84Lat": 39.772164,
    "bdLng": 116.009299,
    "bdLat": 39.779699,
    "isVip": 0.0
  },
  {
    "id": 13,
    "name": "上万",
    "address": "北京市房山区青龙湖镇上万站",
    "ownership": "北京铁路局",
    "type": " ",
    "category": "乘降所",
    "province": "北京",
    "city": "房山区",
    "gcjLng": 116.042595,
    "gcjLat": 39.823433,
    "wgs84Lng": 116.036343,
    "wgs84Lat": 39.822108,
    "bdLng": 116.04895,
    "bdLat": 39.829759,
    "isVip": 0.0
  },
  {
    "id": 14,
    "name": "十渡站",
    "address": "北京市房山区十渡镇十渡村",
    "ownership": "北京铁路局",
    "type": " ",
    "category": "客运站",
    "province": "北京",
    "city": "房山区",
    "gcjLng": 115.589382,
    "gcjLat": 39.647197,
    "wgs84Lng": 115.583354,
    "wgs84Lat": 39.646206,
    "bdLng": 115.595837,
    "bdLat": 39.65329,
    "isVip": 0.0
  },
  {
    "id": 15,
    "name": "燕山站",
    "address": "北京市房山区燕山中路7号",
    "ownership": "北京铁路局",
    "type": " ",
    "category": "客运站",
    "province": "北京",
    "city": "房山区",
    "gcjLng": 115.95867,
    "gcjLat": 39.750025,
    "wgs84Lng": 115.95269,
    "wgs84Lat": 39.748942,
    "bdLng": 115.965024,
    "bdLat": 39.756351,
    "isVip": 0.0
  },
  {
    "id": 16,
    "name": "三合庄",
    "address": "北京市房山区张坊镇三合庄火车站",
    "ownership": "北京铁路局",
    "type": " ",
    "category": "乘降所",
    "province": "北京",
    "city": "房山区",
    "gcjLng": 115.71283,
    "gcjLat": 39.63589,
    "wgs84Lng": 115.706637,
    "wgs84Lat": 39.634739,
    "bdLng": 115.719231,
    "bdLat": 39.64209,
    "isVip": 0.0
  },
  {
    "id": 17,
    "name": "良各庄",
    "address": "北京市房山区周口店镇良各庄火车站",
    "ownership": "北京铁路局",
    "type": " ",
    "category": "乘降所",
    "province": "北京",
    "city": "房山区",
    "gcjLng": 115.937506,
    "gcjLat": 39.719189,
    "wgs84Lng": 115.931573,
    "wgs84Lat": 39.718152,
    "bdLng": 115.943866,
    "bdLat": 39.725516,
    "isVip": 0.0
  },
  {
    "id": 18,
    "name": "北京南站",
    "address": "北京市丰台区车站路12号",
    "ownership": "北京铁路局",
    "type": " ",
    "category": "客运站",
    "province": "北京",
    "city": "丰台区",
    "gcjLng": 116.379054,
    "gcjLat": 39.864896,
    "wgs84Lng": 116.372828,
    "wgs84Lat": 39.863505,
    "bdLng": 116.385494,
    "bdLat": 39.871016,
    "isVip": 0.0
  },
  {
    "id": 19,
    "name": "大灰厂",
    "address": "北京市丰台区大灰厂村大灰厂火车站",
    "ownership": "北京铁路局",
    "type": " ",
    "category": "乘降所",
    "province": "北京",
    "city": "丰台区",
    "gcjLng": 116.134049,
    "gcjLat": 39.859677,
    "wgs84Lng": 116.127779,
    "wgs84Lat": 39.858307,
    "bdLng": 116.140444,
    "bdLat": 39.865999,
    "isVip": 0.0
  },
  {
    "id": 20,
    "name": "北京西站",
    "address": "北京市丰台区莲花池东路118号",
    "ownership": "北京铁路局",
    "type": " ",
    "category": "客运站",
    "province": "北京",
    "city": "丰台区",
    "gcjLng": 116.321148,
    "gcjLat": 39.894755,
    "wgs84Lng": 116.315031,
    "wgs84Lat": 39.893457,
    "bdLng": 116.327564,
    "bdLat": 39.900927,
    "isVip": 0.0
  },
  {
    "id": 21,
    "name": "清河站",
    "address": "北京市海淀区清河火车站",
    "ownership": "北京铁路局",
    "type": " ",
    "category": "客运站",
    "province": "北京",
    "city": "海淀区",
    "gcjLng": 116.315062,
    "gcjLat": 40.041651,
    "wgs84Lng": 116.308941,
    "wgs84Lat": 40.040358,
    "bdLng": 116.321486,
    "bdLat": 40.047832,
    "isVip": 0.0
  },
  {
    "id": 22,
    "name": "怀柔站",
    "address": "北京市怀柔区府前东街1号",
    "ownership": "北京铁路局",
    "type": " ",
    "category": "客运站",
    "province": "北京",
    "city": "怀柔区",
    "gcjLng": 116.648861,
    "gcjLat": 40.3171,
    "wgs84Lng": 116.642946,
    "wgs84Lat": 40.315968,
    "bdLng": 116.655417,
    "bdLat": 40.322938,
    "isVip": 0.0
  },
  {
    "id": 23,
    "name": "怀柔北站",
    "address": "北京市怀柔区怀柔北站",
    "ownership": "北京铁路局",
    "type": " ",
    "category": "客运站",
    "province": "北京",
    "city": "怀柔区",
    "gcjLng": 116.692719,
    "gcjLat": 40.408809,
    "wgs84Lng": 116.68667,
    "wgs84Lat": 40.407568,
    "bdLng": 116.699289,
    "bdLat": 40.414605,
    "isVip": 0.0
  },
  {
    "id": 24,
    "name": "庙城",
    "address": "北京市怀柔区庙城镇庙城火车站",
    "ownership": "北京铁路局",
    "type": " ",
    "category": "乘降所",
    "province": "北京",
    "city": "怀柔区",
    "gcjLng": 116.631421,
    "gcjLat": 40.301154,
    "wgs84Lng": 116.625548,
    "wgs84Lat": 40.300053,
    "bdLng": 116.637974,
    "bdLat": 40.307012,
    "isVip": 0.0
  },
  {
    "id": 25,
    "name": "北宅",
    "address": "北京市怀柔区桥梓镇北宅村",
    "ownership": "北京铁路局",
    "type": " ",
    "category": "乘降所",
    "province": "北京",
    "city": "怀柔区",
    "gcjLng": 116.570563,
    "gcjLat": 40.343377,
    "wgs84Lng": 116.564709,
    "wgs84Lat": 40.342272,
    "bdLng": 116.577115,
    "bdLat": 40.349314,
    "isVip": 0.0
  },
  {
    "id": 26,
    "name": "斜河涧",
    "address": "北京市门头沟区妙峰山斜河涧火车站",
    "ownership": "北京铁路局",
    "type": " ",
    "category": "乘降所",
    "province": "北京",
    "city": "门头沟区",
    "gcjLng": 116.064616,
    "gcjLat": 39.977927,
    "wgs84Lng": 116.0583,
    "wgs84Lat": 39.976553,
    "bdLng": 116.070987,
    "bdLat": 39.984258,
    "isVip": 0.0
  },
  {
    "id": 27,
    "name": "三家店站",
    "address": "北京市门头沟区三家店火车站",
    "ownership": "北京铁路局",
    "type": " ",
    "category": "客运站",
    "province": "北京",
    "city": "门头沟区",
    "gcjLng": 116.120502,
    "gcjLat": 39.95018,
    "wgs84Lng": 116.114195,
    "wgs84Lat": 39.948791,
    "bdLng": 116.126896,
    "bdLat": 39.956507,
    "isVip": 0.0
  },
  {
    "id": 28,
    "name": "安家庄",
    "address": "北京市门头沟区王平镇安家庄火车站",
    "ownership": "北京铁路局",
    "type": " ",
    "category": "乘降所",
    "province": "北京",
    "city": "门头沟区",
    "gcjLng": 115.953994,
    "gcjLat": 39.997699,
    "wgs84Lng": 115.947994,
    "wgs84Lat": 39.996612,
    "bdLng": 115.960361,
    "bdLat": 40.00403,
    "isVip": 0.0
  },
  {
    "id": 29,
    "name": "落坡岭",
    "address": "北京市门头沟区王平镇落坡岭火车站",
    "ownership": "北京铁路局",
    "type": " ",
    "category": "乘降所",
    "province": "北京",
    "city": "门头沟区",
    "gcjLng": 115.986624,
    "gcjLat": 39.987619,
    "wgs84Lng": 115.98053,
    "wgs84Lat": 39.986446,
    "bdLng": 115.992983,
    "bdLat": 39.993948,
    "isVip": 0.0
  },
  {
    "id": 30,
    "name": "雁翅",
    "address": "北京市门头沟区雁翅镇雁翅火车站",
    "ownership": "北京铁路局",
    "type": " ",
    "category": "乘降所",
    "province": "北京",
    "city": "门头沟区",
    "gcjLng": 115.89764,
    "gcjLat": 40.035088,
    "wgs84Lng": 115.891685,
    "wgs84Lat": 40.03406,
    "bdLng": 115.904034,
    "bdLat": 40.041421,
    "isVip": 0.0
  },
  {
    "id": 31,
    "name": "珠窝",
    "address": "北京市门头沟区雁翅镇珠窝火车站",
    "ownership": "北京铁路局",
    "type": " ",
    "category": "乘降所",
    "province": "北京",
    "city": "门头沟区",
    "gcjLng": 115.802701,
    "gcjLat": 40.057462,
    "wgs84Lng": 115.796521,
    "wgs84Lat": 40.056298,
    "bdLng": 115.809122,
    "bdLat": 40.063756,
    "isVip": 0.0
  },
  {
    "id": 32,
    "name": "沿河城",
    "address": "北京市门头沟区斋堂镇沿河城火车站",
    "ownership": "北京铁路局",
    "type": " ",
    "category": "乘降所",
    "province": "北京",
    "city": "门头沟区",
    "gcjLng": 115.726685,
    "gcjLat": 40.102621,
    "wgs84Lng": 115.720419,
    "wgs84Lat": 40.101418,
    "bdLng": 115.733107,
    "bdLat": 40.108844,
    "isVip": 0.0
  },
  {
    "id": 33,
    "name": "密云站",
    "address": "北京市密云县车站路1号",
    "ownership": "北京铁路局",
    "type": " ",
    "category": "客运站",
    "province": "北京",
    "city": "密云县",
    "gcjLng": 116.853469,
    "gcjLat": 40.395473,
    "wgs84Lng": 116.847451,
    "wgs84Lat": 40.394317,
    "bdLng": 116.860105,
    "bdLat": 40.401175,
    "isVip": 0.0
  },
  {
    "id": 34,
    "name": "统军庄",
    "address": "北京市密云县十里堡镇统军庄村",
    "ownership": "北京铁路局",
    "type": " ",
    "category": "乘降所",
    "province": "北京",
    "city": "密云县",
    "gcjLng": 116.753969,
    "gcjLat": 40.343077,
    "wgs84Lng": 116.747829,
    "wgs84Lat": 40.3418,
    "bdLng": 116.76057,
    "bdLat": 40.348832,
    "isVip": 0.0
  },
  {
    "id": 35,
    "name": "张辛",
    "address": "北京市顺义区李桥镇张辛火车站",
    "ownership": "北京铁路局",
    "type": " ",
    "category": "乘降所",
    "province": "北京",
    "city": "顺义区",
    "gcjLng": 116.68627,
    "gcjLat": 40.01221,
    "wgs84Lng": 116.680288,
    "wgs84Lat": 40.011048,
    "bdLng": 116.692819,
    "bdLat": 40.018006,
    "isVip": 0.0
  },
  {
    "id": 36,
    "name": "高各庄",
    "address": "北京市顺义区牛栏山镇高各庄火车站",
    "ownership": "北京铁路局",
    "type": " ",
    "category": "乘降所",
    "province": "北京",
    "city": "怀柔区",
    "gcjLng": 116.624818,
    "gcjLat": 40.258928,
    "wgs84Lng": 116.618962,
    "wgs84Lat": 40.257844,
    "bdLng": 116.631368,
    "bdLat": 40.264793,
    "isVip": 0.0
  },
  {
    "id": 37,
    "name": "顺义站",
    "address": "北京市顺义区站前北街17号",
    "ownership": "北京铁路局",
    "type": " ",
    "category": "客运站",
    "province": "北京",
    "city": "顺义区",
    "gcjLng": 116.645463,
    "gcjLat": 40.125875,
    "wgs84Lng": 116.63958,
    "wgs84Lat": 40.12478,
    "bdLng": 116.652009,
    "bdLat": 40.131713,
    "isVip": 0.0
  },
  {
    "id": 38,
    "name": "通州西站",
    "address": "北京市通州区五里店西路11号",
    "ownership": "北京铁路局",
    "type": " ",
    "category": "客运站",
    "province": "北京",
    "city": "通州区",
    "gcjLng": 116.627183,
    "gcjLat": 39.904424,
    "wgs84Lng": 116.621367,
    "wgs84Lat": 39.903368,
    "bdLng": 116.633714,
    "bdLat": 39.91028,
    "isVip": 0.0
  },
  {
    "id": 39,
    "name": "北京北站",
    "address": "北京市西城区北滨河路1号",
    "ownership": "北京铁路局",
    "type": " ",
    "category": "客运站",
    "province": "北京",
    "city": "西城区",
    "gcjLng": 116.35422,
    "gcjLat": 39.942268,
    "wgs84Lng": 116.348024,
    "wgs84Lat": 39.940907,
    "bdLng": 116.360651,
    "bdLat": 39.94841,
    "isVip": 0.0
  },
  {
    "id": 40,
    "name": "八达岭站",
    "address": "北京市延庆县八达岭镇",
    "ownership": "北京铁路局",
    "type": " ",
    "category": "客运站",
    "province": "北京",
    "city": "延庆县",
    "gcjLng": 115.996282,
    "gcjLat": 40.358891,
    "wgs84Lng": 115.990108,
    "wgs84Lat": 40.357638,
    "bdLng": 116.002656,
    "bdLat": 40.365226,
    "isVip": 0.0
  },
  {
    "id": 41,
    "name": "延庆站",
    "address": "北京市延庆县妫水南街59号",
    "ownership": "北京铁路局",
    "type": " ",
    "category": "客运站",
    "province": "北京",
    "city": "延庆县",
    "gcjLng": 115.990967,
    "gcjLat": 40.47398,
    "wgs84Lng": 115.984797,
    "wgs84Lat": 40.4727,
    "bdLng": 115.997344,
    "bdLat": 40.480316,
    "isVip": 0.0
  },
  {
    "id": 42,
    "name": "康庄站",
    "address": "北京市延庆县康庄站",
    "ownership": "北京铁路局",
    "type": " ",
    "category": "客运站",
    "province": "北京",
    "city": "延庆县",
    "gcjLng": 115.898507,
    "gcjLat": 40.379963,
    "wgs84Lng": 115.892509,
    "wgs84Lat": 40.378879,
    "bdLng": 115.904914,
    "bdLat": 40.386301,
    "isVip": 0.0
  },
  {
    "id": 43,
    "name": "霸州站",
    "address": "河北省霸州市迎宾路火车站",
    "ownership": "北京铁路局",
    "type": " ",
    "category": "客运站",
    "province": "河北",
    "city": "廊坊",
    "gcjLng": 116.376222,
    "gcjLat": 39.122846,
    "wgs84Lng": 116.370092,
    "wgs84Lat": 39.121706,
    "bdLng": 116.382662,
    "bdLat": 39.128969,
    "isVip": 0.0
  },
  {
    "id": 44,
    "name": "保定东站",
    "address": "河北省保定市东风东路高铁保定东站",
    "ownership": "北京铁路局",
    "type": " ",
    "category": "客运站",
    "province": "河北",
    "city": "保定",
    "gcjLng": 115.60163,
    "gcjLat": 38.864146,
    "wgs84Lng": 115.595701,
    "wgs84Lat": 38.863534,
    "bdLng": 115.608102,
    "bdLat": 38.870257,
    "isVip": 0.0
  },
  {
    "id": 45,
    "name": "板城",
    "address": "河北省保定市涞水县赵各庄镇板城火车站",
    "ownership": "北京铁路局",
    "type": " ",
    "category": "乘降所",
    "province": "河北",
    "city": "保定",
    "gcjLng": 115.256435,
    "gcjLat": 39.614009,
    "wgs84Lng": 115.25016,
    "wgs84Lat": 39.612848,
    "bdLng": 115.262998,
    "bdLat": 39.619762,
    "isVip": 0.0
  },
  {
    "id": 46,
    "name": "北屯",
    "address": "河北省保定市涞源县北屯火车站",
    "ownership": "北京铁路局",
    "type": " ",
    "category": "乘降所",
    "province": "新疆维吾尔自治区",
    "city": "阿勒泰",
    "gcjLng": 87.761789,
    "gcjLat": 47.323164,
    "wgs84Lng": 87.758513,
    "wgs84Lat": 47.32201,
    "bdLng": 87.768173,
    "bdLat": 47.32935,
    "isVip": 0.0
  },
  {
    "id": 47,
    "name": "保定站",
    "address": "河北省保定市新华路118号",
    "ownership": "北京铁路局",
    "type": " ",
    "category": "客运站",
    "province": "河北",
    "city": "保定",
    "gcjLng": 115.479882,
    "gcjLat": 38.863454,
    "wgs84Lng": 115.473619,
    "wgs84Lat": 38.862601,
    "bdLng": 115.48642,
    "bdLat": 38.869452,
    "isVip": 0.0
  },
  {
    "id": 48,
    "name": "徐水站",
    "address": "河北省保定徐水县康明中路车站街12号",
    "ownership": "北京铁路局",
    "type": " ",
    "category": "客运站",
    "province": "河北",
    "city": "保定",
    "gcjLng": 115.638217,
    "gcjLat": 39.031429,
    "wgs84Lng": 115.632238,
    "wgs84Lat": 39.030685,
    "bdLng": 115.644657,
    "bdLat": 39.037565,
    "isVip": 0.0
  },
  {
    "id": 49,
    "name": "泊头站",
    "address": "河北省泊头市胜利东路东端",
    "ownership": "北京铁路局",
    "type": " ",
    "category": "客运站",
    "province": "河北",
    "city": "沧州",
    "gcjLng": 116.586507,
    "gcjLat": 38.061648,
    "wgs84Lng": 116.580936,
    "wgs84Lat": 38.061127,
    "bdLng": 116.593045,
    "bdLat": 38.067559,
    "isVip": 0.0
  },
  {
    "id": 50,
    "name": "沧州西站",
    "address": "河北省沧州市沧县北京路西端头",
    "ownership": "北京铁路局",
    "type": " ",
    "category": "客运站",
    "province": "河北",
    "city": "沧州",
    "gcjLng": 116.767942,
    "gcjLat": 38.306928,
    "wgs84Lng": 116.762051,
    "wgs84Lat": 38.306263,
    "bdLng": 116.774544,
    "bdLat": 38.312675,
    "isVip": 0.0
  },
  {
    "id": 51,
    "name": "东光站",
    "address": "河北省沧州市东光县观州路与建设大街交口",
    "ownership": "北京铁路局",
    "type": " ",
    "category": "客运站",
    "province": "河北",
    "city": "沧州",
    "gcjLng": 116.537173,
    "gcjLat": 37.898774,
    "wgs84Lng": 116.531533,
    "wgs84Lat": 37.898144,
    "bdLng": 116.543697,
    "bdLat": 37.904746,
    "isVip": 0.0
  },
  {
    "id": 52,
    "name": "青县站",
    "address": "河北省沧州市青县清州镇迎宾路72号",
    "ownership": "北京铁路局",
    "type": " ",
    "category": "客运站",
    "province": "河北",
    "city": "沧州",
    "gcjLng": 116.838228,
    "gcjLat": 38.577638,
    "wgs84Lng": 116.832405,
    "wgs84Lat": 38.57705,
    "bdLng": 116.844858,
    "bdLat": 38.583348,
    "isVip": 0.0
  },
  {
    "id": 53,
    "name": "肃宁站",
    "address": "河北省沧州市肃宁县站前街",
    "ownership": "北京铁路局",
    "type": " ",
    "category": "客运站",
    "province": "河北",
    "city": "沧州",
    "gcjLng": 115.849967,
    "gcjLat": 38.415074,
    "wgs84Lng": 115.844118,
    "wgs84Lat": 38.414556,
    "bdLng": 115.856398,
    "bdLat": 38.4214,
    "isVip": 0.0
  },
  {
    "id": 54,
    "name": "沧州站",
    "address": "河北省沧州市新华区新华东路2号",
    "ownership": "北京铁路局",
    "type": " ",
    "category": "客运站",
    "province": "河北",
    "city": "沧州",
    "gcjLng": 116.877566,
    "gcjLat": 38.309236,
    "wgs84Lng": 116.871827,
    "wgs84Lat": 38.308735,
    "bdLng": 116.884192,
    "bdLat": 38.314922,
    "isVip": 0.0
  },
  {
    "id": 55,
    "name": "高寺台",
    "address": "河北省承德市承德县高寺台镇营房村",
    "ownership": "北京铁路局",
    "type": " ",
    "category": "乘降所",
    "province": "河北",
    "city": "沧州",
    "gcjLng": 117.963552,
    "gcjLat": 41.159951,
    "wgs84Lng": 117.957195,
    "wgs84Lat": 41.158196,
    "bdLng": 117.969903,
    "bdLat": 41.166283,
    "isVip": 0.0
  },
  {
    "id": 56,
    "name": "永和",
    "address": "河北省承德市承德县甲山镇松挠沟门村",
    "ownership": "北京铁路局",
    "type": " ",
    "category": "乘降所",
    "province": "河北",
    "city": "承德",
    "gcjLng": 118.351094,
    "gcjLat": 40.778498,
    "wgs84Lng": 118.344664,
    "wgs84Lat": 40.77681,
    "bdLng": 118.357538,
    "bdLat": 40.78465,
    "isVip": 0.0
  },
  {
    "id": 57,
    "name": "甲山",
    "address": "河北省承德市承德县甲山镇武场村",
    "ownership": "北京铁路局",
    "type": " ",
    "category": "乘降所",
    "province": "河北",
    "city": "承德",
    "gcjLng": 118.265047,
    "gcjLat": 40.788768,
    "wgs84Lng": 118.258754,
    "wgs84Lat": 40.787206,
    "bdLng": 118.271475,
    "bdLat": 40.795007,
    "isVip": 0.0
  },
  {
    "id": 58,
    "name": "南湾子",
    "address": "河北省承德市承德县刘杖子乡二道营村",
    "ownership": "北京铁路局",
    "type": " ",
    "category": "乘降所",
    "province": "河北",
    "city": "承德",
    "gcjLng": 117.81973,
    "gcjLat": 40.730247,
    "wgs84Lng": 117.813331,
    "wgs84Lat": 40.728822,
    "bdLng": 117.826159,
    "bdLat": 40.73656,
    "isVip": 0.0
  },
  {
    "id": 59,
    "name": "大杖子",
    "address": "河北省承德市承德县上谷乡屈家沟村",
    "ownership": "北京铁路局",
    "type": " ",
    "category": "乘降所",
    "province": "河北",
    "city": "承德",
    "gcjLng": 118.549993,
    "gcjLat": 40.851451,
    "wgs84Lng": 118.543961,
    "wgs84Lat": 40.849971,
    "bdLng": 118.556539,
    "bdLat": 40.85741,
    "isVip": 0.0
  },
  {
    "id": 60,
    "name": "新杖子站",
    "address": "河北省承德市承德县新杖子村新达胡同1号",
    "ownership": "北京铁路局",
    "type": " ",
    "category": "客运站",
    "province": "河北",
    "city": "承德",
    "gcjLng": 118.338629,
    "gcjLat": 40.878753,
    "wgs84Lng": 118.33221,
    "wgs84Lat": 40.877007,
    "bdLng": 118.345062,
    "bdLat": 40.884914,
    "isVip": 0.0
  },
  {
    "id": 61,
    "name": "上板城南站",
    "address": "河北省承德市开发新区上板城镇",
    "ownership": "北京铁路局",
    "type": " ",
    "category": "客运站",
    "province": "河北",
    "city": "承德",
    "gcjLng": 118.047459,
    "gcjLat": 40.825272,
    "wgs84Lng": 118.040886,
    "wgs84Lat": 40.823562,
    "bdLng": 118.053832,
    "bdLat": 40.83161,
    "isVip": 0.0
  },
  {
    "id": 62,
    "name": "隆化站",
    "address": "河北省承德市隆化县北安路8号",
    "ownership": "北京铁路局",
    "type": " ",
    "category": "客运站",
    "province": "河北",
    "city": "承德",
    "gcjLng": 117.751064,
    "gcjLat": 41.328762,
    "wgs84Lng": 117.744455,
    "wgs84Lat": 41.326788,
    "bdLng": 117.757461,
    "bdLat": 41.335005,
    "isVip": 0.0
  },
  {
    "id": 63,
    "name": "韩麻营",
    "address": "河北省承德市隆化县韩麻营镇十八里汰村",
    "ownership": "北京铁路局",
    "type": " ",
    "category": "乘降所",
    "province": "河北",
    "city": "承德",
    "gcjLng": 117.841664,
    "gcjLat": 41.278117,
    "wgs84Lng": 117.835254,
    "wgs84Lat": 41.276293,
    "bdLng": 117.848059,
    "bdLat": 41.284433,
    "isVip": 0.0
  },
  {
    "id": 64,
    "name": "超梁沟",
    "address": "河北省承德市隆化县隆化镇超梁沟村",
    "ownership": "北京铁路局",
    "type": " ",
    "category": "乘降所",
    "province": "河北",
    "city": "承德",
    "gcjLng": 117.696424,
    "gcjLat": 41.23363,
    "wgs84Lng": 117.689878,
    "wgs84Lat": 41.231771,
    "bdLng": 117.702826,
    "bdLat": 41.239817,
    "isVip": 0.0
  },
  {
    "id": 65,
    "name": "闹海营",
    "address": "河北省承德市隆化县隆化镇闹海营村",
    "ownership": "北京铁路局",
    "type": " ",
    "category": "乘降所",
    "province": "河北",
    "city": "承德",
    "gcjLng": 117.717051,
    "gcjLat": 41.294443,
    "wgs84Lng": 117.710463,
    "wgs84Lat": 41.292512,
    "bdLng": 117.723448,
    "bdLat": 41.300651,
    "isVip": 0.0
  },
  {
    "id": 66,
    "name": "五道河",
    "address": "河北省承德市滦平县安纯沟门乡五道河村平甸子自然村",
    "ownership": "北京铁路局",
    "type": " ",
    "category": "乘降所",
    "province": "河北",
    "city": "承德",
    "gcjLng": 117.065948,
    "gcjLat": 40.894088,
    "wgs84Lng": 117.059334,
    "wgs84Lat": 40.892311,
    "bdLng": 117.072556,
    "bdLat": 40.899735,
    "isVip": 0.0
  },
  {
    "id": 67,
    "name": "二道沟门",
    "address": "河北省承德市滦平县安纯沟门乡小白旗村",
    "ownership": "北京铁路局",
    "type": " ",
    "category": "乘降所",
    "province": "河北",
    "city": "承德",
    "gcjLng": 117.151363,
    "gcjLat": 40.886618,
    "wgs84Lng": 117.144738,
    "wgs84Lat": 40.884876,
    "bdLng": 117.157989,
    "bdLat": 40.892318,
    "isVip": 0.0
  },
  {
    "id": 68,
    "name": "流水沟",
    "address": "河北省承德市滦平县巴克什营镇流水沟村",
    "ownership": "北京铁路局",
    "type": " ",
    "category": "乘降所",
    "province": "河北",
    "city": "承德",
    "gcjLng": 117.145512,
    "gcjLat": 40.706723,
    "wgs84Lng": 117.138903,
    "wgs84Lat": 40.705112,
    "bdLng": 117.152147,
    "bdLat": 40.712423,
    "isVip": 0.0
  },
  {
    "id": 69,
    "name": "窑上",
    "address": "河北省承德市滦平县大屯乡大屯村",
    "ownership": "北京铁路局",
    "type": " ",
    "category": "乘降所",
    "province": "河北",
    "city": "承德",
    "gcjLng": 117.408626,
    "gcjLat": 40.984166,
    "wgs84Lng": 117.401807,
    "wgs84Lat": 40.982283,
    "bdLng": 117.415161,
    "bdLat": 40.990066,
    "isVip": 0.0
  },
  {
    "id": 70,
    "name": "白旗",
    "address": "河北省承德市滦平县红旗镇北白旗村",
    "ownership": "北京铁路局",
    "type": " ",
    "category": "乘降所",
    "province": "河北",
    "city": "承德",
    "gcjLng": 117.672244,
    "gcjLat": 41.158852,
    "wgs84Lng": 117.665762,
    "wgs84Lat": 41.157095,
    "bdLng": 117.678657,
    "bdLat": 41.165017,
    "isVip": 0.0
  },
  {
    "id": 71,
    "name": "梁底下",
    "address": "河北省承德市滦平县红旗镇桥头村",
    "ownership": "北京铁路局",
    "type": " ",
    "category": "乘降所",
    "province": "河北",
    "city": "承德",
    "gcjLng": 117.625721,
    "gcjLat": 41.108235,
    "wgs84Lng": 117.619338,
    "wgs84Lat": 41.106595,
    "bdLng": 117.63216,
    "bdLat": 41.114361,
    "isVip": 0.0
  },
  {
    "id": 72,
    "name": "猴山",
    "address": "河北省承德市滦平县虎什哈镇猴山村",
    "ownership": "北京铁路局",
    "type": " ",
    "category": "乘降所",
    "province": "河北",
    "city": "承德",
    "gcjLng": 117.029415,
    "gcjLat": 40.815822,
    "wgs84Lng": 117.022936,
    "wgs84Lat": 40.814187,
    "bdLng": 117.036019,
    "bdLat": 40.821457,
    "isVip": 0.0
  },
  {
    "id": 73,
    "name": "虎什哈",
    "address": "河北省承德市滦平县虎什哈镇三道河村",
    "ownership": "北京铁路局",
    "type": " ",
    "category": "乘降所",
    "province": "河北",
    "city": "承德",
    "gcjLng": 116.990666,
    "gcjLat": 40.861129,
    "wgs84Lng": 116.984355,
    "wgs84Lat": 40.859571,
    "bdLng": 116.997268,
    "bdLat": 40.866761,
    "isVip": 0.0
  },
  {
    "id": 74,
    "name": "金沟屯",
    "address": "河北省承德市滦平县金沟屯镇东村",
    "ownership": "北京铁路局",
    "type": " ",
    "category": "乘降所",
    "province": "河北",
    "city": "承德",
    "gcjLng": 117.516976,
    "gcjLat": 41.05936,
    "wgs84Lng": 117.510439,
    "wgs84Lat": 41.057645,
    "bdLng": 117.52349,
    "bdLat": 41.065395,
    "isVip": 0.0
  },
  {
    "id": 75,
    "name": "滦河沿",
    "address": "河北省承德市滦平县金钩屯镇滦河沿村",
    "ownership": "北京铁路局",
    "type": " ",
    "category": "乘降所",
    "province": "河北",
    "city": "承德",
    "gcjLng": 117.543978,
    "gcjLat": 41.079509,
    "wgs84Lng": 117.537531,
    "wgs84Lat": 41.077847,
    "bdLng": 117.550476,
    "bdLat": 41.08557,
    "isVip": 0.0
  },
  {
    "id": 76,
    "name": "南大庙",
    "address": "河北省承德市滦平县马营子乡南大庙村",
    "ownership": "北京铁路局",
    "type": " ",
    "category": "乘降所",
    "province": "河北",
    "city": "承德",
    "gcjLng": 117.070731,
    "gcjLat": 40.771243,
    "wgs84Lng": 117.064123,
    "wgs84Lat": 40.769559,
    "bdLng": 117.077347,
    "bdLat": 40.776895,
    "isVip": 0.0
  },
  {
    "id": 77,
    "name": "平坊",
    "address": "河北省承德市滦平县平坊乡下洼子村",
    "ownership": "北京铁路局",
    "type": " ",
    "category": "乘降所",
    "province": "河北",
    "city": "承德",
    "gcjLng": 117.243084,
    "gcjLat": 40.893021,
    "wgs84Lng": 117.236581,
    "wgs84Lat": 40.891402,
    "bdLng": 117.249678,
    "bdLat": 40.89877,
    "isVip": 0.0
  },
  {
    "id": 78,
    "name": "张百湾",
    "address": "河北省承德市滦平县张百湾镇河北村",
    "ownership": "北京铁路局",
    "type": " ",
    "category": "乘降所",
    "province": "河北",
    "city": "承德",
    "gcjLng": 117.482273,
    "gcjLat": 40.999331,
    "wgs84Lng": 117.475611,
    "wgs84Lat": 40.997564,
    "bdLng": 117.488803,
    "bdLat": 41.005328,
    "isVip": 0.0
  },
  {
    "id": 79,
    "name": "滦平站",
    "address": "河北省承德市滦平县振兴路西侧164号",
    "ownership": "北京铁路局",
    "type": " ",
    "category": "客运站",
    "province": "河北",
    "city": "承德",
    "gcjLng": 117.316674,
    "gcjLat": 40.923413,
    "wgs84Lng": 117.310041,
    "wgs84Lat": 40.921694,
    "bdLng": 117.323227,
    "bdLat": 40.929208,
    "isVip": 0.0
  },
  {
    "id": 80,
    "name": "平泉站",
    "address": "河北省承德市平泉县东方街",
    "ownership": "北京铁路局",
    "type": " ",
    "category": "客运站",
    "province": "河北",
    "city": "承德",
    "gcjLng": 118.699887,
    "gcjLat": 40.999867,
    "wgs84Lng": 118.693723,
    "wgs84Lat": 40.998168,
    "bdLng": 118.706445,
    "bdLat": 41.005647,
    "isVip": 0.0
  },
  {
    "id": 81,
    "name": "小寺沟站",
    "address": "河北省承德市平泉县南五十家子镇",
    "ownership": "北京铁路局",
    "type": " ",
    "category": "客运站",
    "province": "河北",
    "city": "承德",
    "gcjLng": 118.645786,
    "gcjLat": 40.899828,
    "wgs84Lng": 118.639764,
    "wgs84Lat": 40.898312,
    "bdLng": 118.652333,
    "bdLat": 40.905662,
    "isVip": 0.0
  },
  {
    "id": 82,
    "name": "承德站",
    "address": "河北省承德市双桥区车站路235号",
    "ownership": "北京铁路局",
    "type": " ",
    "category": "客运站",
    "province": "河北",
    "city": "承德",
    "gcjLng": 117.954476,
    "gcjLat": 40.965295,
    "wgs84Lng": 117.948169,
    "wgs84Lat": 40.963724,
    "bdLng": 117.960842,
    "bdLat": 40.971632,
    "isVip": 0.0
  },
  {
    "id": 83,
    "name": "上板城站",
    "address": "河北省承德市双桥区开发新区卸甲营村",
    "ownership": "北京铁路局",
    "type": " ",
    "category": "客运站",
    "province": "河北",
    "city": "承德",
    "gcjLng": 118.058046,
    "gcjLat": 40.83833,
    "wgs84Lng": 118.05145,
    "wgs84Lat": 40.836588,
    "bdLng": 118.064422,
    "bdLat": 40.844668,
    "isVip": 0.0
  },
  {
    "id": 84,
    "name": "西大庙",
    "address": "河北省承德市双桥区上板城镇西大庙村",
    "ownership": "北京铁路局",
    "type": " ",
    "category": "乘降所",
    "province": "河北",
    "city": "承德",
    "gcjLng": 117.96782,
    "gcjLat": 40.805006,
    "wgs84Lng": 117.961499,
    "wgs84Lat": 40.803535,
    "bdLng": 117.974191,
    "bdLat": 40.811345,
    "isVip": 0.0
  },
  {
    "id": 85,
    "name": "双峰寺",
    "address": "河北省承德市双桥区双峰寺镇三道河村",
    "ownership": "北京铁路局",
    "type": " ",
    "category": "乘降所",
    "province": "河北",
    "city": "承德",
    "gcjLng": 117.971409,
    "gcjLat": 41.048346,
    "wgs84Lng": 117.965044,
    "wgs84Lat": 41.046662,
    "bdLng": 117.977764,
    "bdLat": 41.054679,
    "isVip": 0.0
  },
  {
    "id": 86,
    "name": "黄土坎",
    "address": "河北省承德市双桥区双峰寺镇西坎村",
    "ownership": "北京铁路局",
    "type": " ",
    "category": "乘降所",
    "province": "河北",
    "city": "承德",
    "gcjLng": 120.798071,
    "gcjLat": 41.072127,
    "wgs84Lng": 120.792762,
    "wgs84Lat": 41.070313,
    "bdLng": 120.804676,
    "bdLat": 41.07784,
    "isVip": 0.0
  },
  {
    "id": 87,
    "name": "承德东",
    "address": "河北省承德市双桥区太平庄村",
    "ownership": "北京铁路局",
    "type": " ",
    "category": "乘降所",
    "province": "河北",
    "city": "承德",
    "gcjLng": 117.990262,
    "gcjLat": 40.889163,
    "wgs84Lng": 117.983858,
    "wgs84Lat": 40.88756,
    "bdLng": 117.996624,
    "bdLat": 40.895499,
    "isVip": 0.0
  },
  {
    "id": 88,
    "name": "洞庙河",
    "address": "河北省承德市兴隆县北营房镇姚栅子村",
    "ownership": "北京铁路局",
    "type": " ",
    "category": "乘降所",
    "province": "河北",
    "city": "承德",
    "gcjLng": 117.694759,
    "gcjLat": 40.571601,
    "wgs84Lng": 117.688307,
    "wgs84Lat": 40.570257,
    "bdLng": 117.701194,
    "bdLat": 40.577798,
    "isVip": 0.0
  },
  {
    "id": 89,
    "name": "潘家店",
    "address": "河北省承德市兴隆县李家营乡栾家店村",
    "ownership": "北京铁路局",
    "type": " ",
    "category": "乘降所",
    "province": "河北",
    "city": "承德",
    "gcjLng": 117.817126,
    "gcjLat": 40.67418,
    "wgs84Lng": 117.810727,
    "wgs84Lat": 40.67279,
    "bdLng": 117.823557,
    "bdLat": 40.680493,
    "isVip": 0.0
  },
  {
    "id": 90,
    "name": "下台子站",
    "address": "河北省承德市兴隆县李家营乡下台子站",
    "ownership": "北京铁路局",
    "type": " ",
    "category": "客运站",
    "province": "河北",
    "city": "承德",
    "gcjLng": 117.741225,
    "gcjLat": 40.603094,
    "wgs84Lng": 117.734715,
    "wgs84Lat": 40.60168,
    "bdLng": 117.747657,
    "bdLat": 40.609339,
    "isVip": 0.0
  },
  {
    "id": 91,
    "name": "六道河子",
    "address": "河北省承德市兴隆县六道河镇五道河村",
    "ownership": "北京铁路局",
    "type": " ",
    "category": "乘降所",
    "province": "河北",
    "city": "承德",
    "gcjLng": 117.315948,
    "gcjLat": 40.395893,
    "wgs84Lng": 117.309389,
    "wgs84Lat": 40.394514,
    "bdLng": 117.322514,
    "bdLat": 40.401694,
    "isVip": 0.0
  },
  {
    "id": 92,
    "name": "兴隆县站",
    "address": "河北省承德市兴隆县雾灵街",
    "ownership": "北京铁路局",
    "type": " ",
    "category": "客运站",
    "province": "河北",
    "city": "承德",
    "gcjLng": 117.514121,
    "gcjLat": 40.437154,
    "wgs84Lng": 117.507659,
    "wgs84Lat": 40.435869,
    "bdLng": 117.520659,
    "bdLat": 40.443195,
    "isVip": 0.0
  },
  {
    "id": 93,
    "name": "鹰手营子站",
    "address": "河北省承德市鹰手营子矿区",
    "ownership": "北京铁路局",
    "type": " ",
    "category": "客运站",
    "province": "河北",
    "city": "承德",
    "gcjLng": 117.669298,
    "gcjLat": 40.55568,
    "wgs84Lng": 117.662904,
    "wgs84Lat": 40.554392,
    "bdLng": 117.67574,
    "bdLat": 40.561852,
    "isVip": 0.0
  },
  {
    "id": 94,
    "name": "榆树沟",
    "address": "河北省承德县甲山镇皇庄村",
    "ownership": "北京铁路局",
    "type": " ",
    "category": "乘降所",
    "province": "河北",
    "city": "承德",
    "gcjLng": 118.404851,
    "gcjLat": 40.785709,
    "wgs84Lng": 118.398375,
    "wgs84Lat": 40.783966,
    "bdLng": 118.411328,
    "bdLat": 40.791816,
    "isVip": 0.0
  },
  {
    "id": 95,
    "name": "上谷",
    "address": "河北省承德县上谷乡",
    "ownership": "北京铁路局",
    "type": " ",
    "category": "乘降所",
    "province": "河北",
    "city": "承德",
    "gcjLng": 118.480765,
    "gcjLat": 40.796135,
    "wgs84Lng": 118.474476,
    "wgs84Lat": 40.794509,
    "bdLng": 118.487294,
    "bdLat": 40.802176,
    "isVip": 0.0
  },
  {
    "id": 96,
    "name": "下板城站",
    "address": "河北省承德县下板城镇车站路1号",
    "ownership": "北京铁路局",
    "type": " ",
    "category": "客运站",
    "province": "河北",
    "city": "承德",
    "gcjLng": 118.176748,
    "gcjLat": 40.774187,
    "wgs84Lng": 118.170308,
    "wgs84Lat": 40.772557,
    "bdLng": 118.183175,
    "bdLat": 40.780503,
    "isVip": 0.0
  },
  {
    "id": 97,
    "name": "磁县站",
    "address": "河北省磁县友谊路2号",
    "ownership": "北京铁路局",
    "type": " ",
    "category": "客运站",
    "province": "河北",
    "city": "邯郸",
    "gcjLng": 114.372906,
    "gcjLat": 36.360387,
    "wgs84Lng": 114.366796,
    "wgs84Lat": 36.360158,
    "bdLng": 114.379375,
    "bdLat": 36.366519,
    "isVip": 0.0
  },
  {
    "id": 98,
    "name": "定州站",
    "address": "河北省定州市博陵北街62号",
    "ownership": "北京铁路局",
    "type": " ",
    "category": "客运站",
    "province": "河北",
    "city": "保定",
    "gcjLng": 114.973517,
    "gcjLat": 38.529937,
    "wgs84Lng": 114.967532,
    "wgs84Lat": 38.529365,
    "bdLng": 114.98013,
    "bdLat": 38.535583,
    "isVip": 0.0
  },
  {
    "id": 99,
    "name": "定州东站",
    "address": "河北省定州市杨家乡小渡河村",
    "ownership": "北京铁路局",
    "type": " ",
    "category": "客运站",
    "province": "河北",
    "city": "保定",
    "gcjLng": 115.07576,
    "gcjLat": 38.508882,
    "wgs84Lng": 115.069435,
    "wgs84Lat": 38.50806,
    "bdLng": 115.082381,
    "bdLat": 38.514545,
    "isVip": 0.0
  },
  {
    "id": 100,
    "name": "高碑店东站",
    "address": "河北省高碑店市方官镇庄夥村兴隆大街高碑店东站",
    "ownership": "北京铁路局",
    "type": " ",
    "category": "客运站",
    "province": "河北",
    "city": "保定",
    "gcjLng": 115.945041,
    "gcjLat": 39.289054,
    "wgs84Lng": 115.939146,
    "wgs84Lat": 39.288144,
    "bdLng": 115.951399,
    "bdLat": 39.295381,
    "isVip": 0.0
  },
  {
    "id": 101,
    "name": "高碑店站",
    "address": "河北省高碑店市迎宾路1号",
    "ownership": "北京铁路局",
    "type": " ",
    "category": "客运站",
    "province": "河北",
    "city": "保定",
    "gcjLng": 115.858912,
    "gcjLat": 39.328714,
    "wgs84Lng": 115.852979,
    "wgs84Lat": 39.32779,
    "bdLng": 115.865305,
    "bdLat": 39.335031,
    "isVip": 0.0
  },
  {
    "id": 102,
    "name": "和村",
    "address": "河北省邯郸市峰峰矿区和村镇柏泗村",
    "ownership": "北京铁路局",
    "type": " ",
    "category": "乘降所",
    "province": "河北",
    "city": "邯郸",
    "gcjLng": 114.123269,
    "gcjLat": 36.556621,
    "wgs84Lng": 114.116963,
    "wgs84Lat": 36.556307,
    "bdLng": 114.129698,
    "bdLat": 36.56295,
    "isVip": 0.0
  },
  {
    "id": 103,
    "name": "临水",
    "address": "河北省邯郸市峰峰矿区临水镇",
    "ownership": "北京铁路局",
    "type": " ",
    "category": "乘降所",
    "province": "河北",
    "city": "邯郸",
    "gcjLng": 114.236679,
    "gcjLat": 36.433573,
    "wgs84Lng": 114.23068,
    "wgs84Lat": 36.433482,
    "bdLng": 114.243126,
    "bdLat": 36.439834,
    "isVip": 0.0
  },
  {
    "id": 104,
    "name": "新坡",
    "address": "河北省邯郸市峰峰矿区新坡镇",
    "ownership": "北京铁路局",
    "type": " ",
    "category": "乘降所",
    "province": "河北",
    "city": "邯郸",
    "gcjLng": 114.295152,
    "gcjLat": 36.470925,
    "wgs84Lng": 114.289147,
    "wgs84Lat": 36.470784,
    "bdLng": 114.301598,
    "bdLat": 36.477128,
    "isVip": 0.0
  },
  {
    "id": 105,
    "name": "邯郸东站",
    "address": "河北省邯郸市高开区高铁邯郸东站",
    "ownership": "北京铁路局",
    "type": " ",
    "category": "客运站",
    "province": "河北",
    "city": "邯郸",
    "gcjLng": 114.559179,
    "gcjLat": 36.62012,
    "wgs84Lng": 114.55351,
    "wgs84Lat": 36.620086,
    "bdLng": 114.565732,
    "bdLat": 36.626073,
    "isVip": 0.0
  },
  {
    "id": 106,
    "name": "邯郸站",
    "address": "河北省邯郸市邯山区车站街2号",
    "ownership": "北京铁路局",
    "type": " ",
    "category": "客运站",
    "province": "河北",
    "city": "邯郸",
    "gcjLng": 114.476689,
    "gcjLat": 36.603392,
    "wgs84Lng": 114.470723,
    "wgs84Lat": 36.603149,
    "bdLng": 114.483222,
    "bdLat": 36.60944,
    "isVip": 0.0
  },
  {
    "id": 107,
    "name": "涉县站",
    "address": "河北省邯郸市涉县迎宾街",
    "ownership": "北京铁路局",
    "type": " ",
    "category": "客运站",
    "province": "河北",
    "city": "邯郸",
    "gcjLng": 113.668269,
    "gcjLat": 36.57721,
    "wgs84Lng": 113.661961,
    "wgs84Lat": 36.577166,
    "bdLng": 113.674721,
    "bdLat": 36.583375,
    "isVip": 0.0
  },
  {
    "id": 108,
    "name": "前磨头站",
    "address": "河北省衡水深州市前磨头镇商业街南头",
    "ownership": "北京铁路局",
    "type": " ",
    "category": "客运站",
    "province": "河北",
    "city": "衡水",
    "gcjLng": 115.492687,
    "gcjLat": 37.795913,
    "wgs84Lng": 115.486601,
    "wgs84Lat": 37.795161,
    "bdLng": 115.499202,
    "bdLat": 37.801919,
    "isVip": 0.0
  },
  {
    "id": 109,
    "name": "深州站",
    "address": "河北省衡水深州市桃源大街1号",
    "ownership": "北京铁路局",
    "type": " ",
    "category": "客运站",
    "province": "河北",
    "city": "衡水",
    "gcjLng": 115.61317,
    "gcjLat": 38.011437,
    "wgs84Lng": 115.607337,
    "wgs84Lat": 38.010924,
    "bdLng": 115.619628,
    "bdLat": 38.017555,
    "isVip": 0.0
  },
  {
    "id": 110,
    "name": "龙华站",
    "address": "河北省衡水市景县龙华镇衡德路北",
    "ownership": "北京铁路局",
    "type": " ",
    "category": "客运站",
    "province": "河北",
    "city": "衡水",
    "gcjLng": 116.022788,
    "gcjLat": 37.611769,
    "wgs84Lng": 116.016858,
    "wgs84Lat": 37.610955,
    "bdLng": 116.029138,
    "bdLat": 37.618093,
    "isVip": 0.0
  },
  {
    "id": 111,
    "name": "饶阳站",
    "address": "河北省衡水市饶阳县富强街186号",
    "ownership": "北京铁路局",
    "type": " ",
    "category": "客运站",
    "province": "河北",
    "city": "衡水",
    "gcjLng": 115.717608,
    "gcjLat": 38.237431,
    "wgs84Lng": 115.711578,
    "wgs84Lat": 38.236796,
    "bdLng": 115.724041,
    "bdLat": 38.243647,
    "isVip": 0.0
  },
  {
    "id": 112,
    "name": "衡水站",
    "address": "河北省衡水市桃城区中心街1号",
    "ownership": "北京铁路局",
    "type": " ",
    "category": "客运站",
    "province": "河北",
    "city": "衡水",
    "gcjLng": 115.690906,
    "gcjLat": 37.744139,
    "wgs84Lng": 115.684974,
    "wgs84Lat": 37.743459,
    "bdLng": 115.697316,
    "bdLat": 37.75032,
    "isVip": 0.0
  },
  {
    "id": 113,
    "name": "大营镇站",
    "address": "河北省衡水市枣强县大营镇站前街",
    "ownership": "北京铁路局",
    "type": " ",
    "category": "客运站",
    "province": "河北",
    "city": "衡水",
    "gcjLng": 115.735326,
    "gcjLat": 37.318489,
    "wgs84Lng": 115.72939,
    "wgs84Lat": 37.317831,
    "bdLng": 115.741732,
    "bdLat": 37.324713,
    "isVip": 0.0
  },
  {
    "id": 114,
    "name": "枣强站",
    "address": "河北省衡水市枣强县富强路中段",
    "ownership": "北京铁路局",
    "type": " ",
    "category": "客运站",
    "province": "河北",
    "city": "衡水",
    "gcjLng": 115.738577,
    "gcjLat": 37.504724,
    "wgs84Lng": 115.73262,
    "wgs84Lat": 37.504001,
    "bdLng": 115.74498,
    "bdLat": 37.510951,
    "isVip": 0.0
  },
  {
    "id": 115,
    "name": "上安",
    "address": "河北省井陉县上安西村",
    "ownership": "北京铁路局",
    "type": " ",
    "category": "乘降所",
    "province": "河北",
    "city": "保定",
    "gcjLng": 114.199943,
    "gcjLat": 38.060834,
    "wgs84Lng": 114.193681,
    "wgs84Lat": 38.060137,
    "bdLng": 114.206372,
    "bdLat": 38.067123,
    "isVip": 0.0
  },
  {
    "id": 116,
    "name": "南张村",
    "address": "河北省井陉县秀林镇南张村",
    "ownership": "北京铁路局",
    "type": " ",
    "category": "乘降所",
    "province": "河北",
    "city": "保定",
    "gcjLng": 114.065137,
    "gcjLat": 37.996186,
    "wgs84Lng": 114.058628,
    "wgs84Lat": 37.995361,
    "bdLng": 114.071517,
    "bdLat": 38.00251,
    "isVip": 0.0
  },
  {
    "id": 117,
    "name": "百里峡站",
    "address": "河北省涞水县九龙镇苟各庄村",
    "ownership": "北京铁路局",
    "type": " ",
    "category": "客运站",
    "province": "河北",
    "city": "保定",
    "gcjLng": 115.39404,
    "gcjLat": 39.683492,
    "wgs84Lng": 115.387509,
    "wgs84Lat": 39.682132,
    "bdLng": 115.400558,
    "bdLat": 39.68937,
    "isVip": 0.0
  },
  {
    "id": 118,
    "name": "野三坡站",
    "address": "河北省涞水县野三坡镇",
    "ownership": "北京铁路局",
    "type": " ",
    "category": "客运站",
    "province": "河北",
    "city": "保定",
    "gcjLng": 115.453948,
    "gcjLat": 39.670998,
    "wgs84Lng": 115.447496,
    "wgs84Lat": 39.669696,
    "bdLng": 115.460467,
    "bdLat": 39.676955,
    "isVip": 0.0
  },
  {
    "id": 119,
    "name": "白涧站",
    "address": "河北省涞水县赵各庄镇",
    "ownership": "北京铁路局",
    "type": " ",
    "category": "客运站",
    "province": "河北",
    "city": "保定",
    "gcjLng": 115.289725,
    "gcjLat": 39.646184,
    "wgs84Lng": 115.283406,
    "wgs84Lat": 39.644988,
    "bdLng": 115.29627,
    "bdLat": 39.651958,
    "isVip": 0.0
  },
  {
    "id": 120,
    "name": "福山口",
    "address": "河北省涞水县赵各庄镇福山口火车站",
    "ownership": "北京铁路局",
    "type": " ",
    "category": "乘降所",
    "province": "河北",
    "city": "保定",
    "gcjLng": 115.341401,
    "gcjLat": 39.674856,
    "wgs84Lng": 115.334957,
    "wgs84Lat": 39.673564,
    "bdLng": 115.347926,
    "bdLat": 39.680674,
    "isVip": 0.0
  },
  {
    "id": 121,
    "name": "艾河",
    "address": "河北省涞源县北石佛乡艾河村艾河火车站",
    "ownership": "北京铁路局",
    "type": " ",
    "category": "乘降所",
    "province": "河北",
    "city": "保定",
    "gcjLng": 114.547821,
    "gcjLat": 39.393767,
    "wgs84Lng": 114.541808,
    "wgs84Lat": 39.392824,
    "bdLng": 114.55434,
    "bdLat": 39.399723,
    "isVip": 0.0
  },
  {
    "id": 122,
    "name": "小西庄",
    "address": "河北省涞源县城关镇小西庄火车站",
    "ownership": "北京铁路局",
    "type": " ",
    "category": "乘降所",
    "province": "河北",
    "city": "保定",
    "gcjLng": 114.629285,
    "gcjLat": 39.40208,
    "wgs84Lng": 114.623332,
    "wgs84Lat": 39.401166,
    "bdLng": 114.635805,
    "bdLat": 39.40793,
    "isVip": 0.0
  },
  {
    "id": 123,
    "name": "浮图峪",
    "address": "河北省涞源县浮图峪村浮图峪火车站",
    "ownership": "北京铁路局",
    "type": " ",
    "category": "乘降所",
    "province": "河北",
    "city": "保定",
    "gcjLng": 114.832949,
    "gcjLat": 39.366716,
    "wgs84Lng": 114.826922,
    "wgs84Lat": 39.365752,
    "bdLng": 114.839548,
    "bdLat": 39.372423,
    "isVip": 0.0
  },
  {
    "id": 124,
    "name": "涞源站",
    "address": "河北省涞源县涞源火车站",
    "ownership": "北京铁路局",
    "type": " ",
    "category": "客运站",
    "province": "河北",
    "city": "保定",
    "gcjLng": 114.71163,
    "gcjLat": 39.371611,
    "wgs84Lng": 114.70551,
    "wgs84Lat": 39.370571,
    "bdLng": 114.718175,
    "bdLat": 39.377384,
    "isVip": 0.0
  },
  {
    "id": 125,
    "name": "塔崖驿",
    "address": "河北省涞源县塔崖驿乡塔崖驿村塔崖驿火车站",
    "ownership": "北京铁路局",
    "type": " ",
    "category": "乘降所",
    "province": "河北",
    "city": "保定",
    "gcjLng": 115.007754,
    "gcjLat": 39.429719,
    "wgs84Lng": 115.001523,
    "wgs84Lat": 39.428597,
    "bdLng": 115.014328,
    "bdLat": 39.435348,
    "isVip": 0.0
  },
  {
    "id": 126,
    "name": "王安镇",
    "address": "河北省涞源县王安镇火车站",
    "ownership": "北京铁路局",
    "type": " ",
    "category": "乘降所",
    "province": "河北",
    "city": "保定",
    "gcjLng": 114.946999,
    "gcjLat": 39.408463,
    "wgs84Lng": 114.940995,
    "wgs84Lat": 39.407515,
    "bdLng": 114.953582,
    "bdLat": 39.414105,
    "isVip": 0.0
  },
  {
    "id": 127,
    "name": "三河县站",
    "address": "河北省廊坊三河市居安小区府东路南",
    "ownership": "北京铁路局",
    "type": " ",
    "category": "客运站",
    "province": "河北",
    "city": "廊坊",
    "gcjLng": 117.09884,
    "gcjLat": 39.978958,
    "wgs84Lng": 117.0923,
    "wgs84Lat": 39.977535,
    "bdLng": 117.105448,
    "bdLat": 39.984622,
    "isVip": 0.0
  },
  {
    "id": 128,
    "name": "燕郊站",
    "address": "河北省廊坊三河市燕郊开发区京榆大街938号",
    "ownership": "北京铁路局",
    "type": " ",
    "category": "客运站",
    "province": "河北",
    "city": "廊坊",
    "gcjLng": 116.825766,
    "gcjLat": 39.941741,
    "wgs84Lng": 116.819755,
    "wgs84Lat": 39.9406,
    "bdLng": 116.832376,
    "bdLat": 39.947451,
    "isVip": 0.0
  },
  {
    "id": 129,
    "name": "廊坊站",
    "address": "河北省廊坊市安次区常甫路北端",
    "ownership": "北京铁路局",
    "type": " ",
    "category": "客运站",
    "province": "河北",
    "city": "廊坊",
    "gcjLng": 116.70873,
    "gcjLat": 39.509501,
    "wgs84Lng": 116.702754,
    "wgs84Lat": 39.508367,
    "bdLng": 116.715269,
    "bdLat": 39.515272,
    "isVip": 0.0
  },
  {
    "id": 130,
    "name": "大厂县",
    "address": "河北省廊坊市大厂回族自治县夏垫镇",
    "ownership": "北京铁路局",
    "type": " ",
    "category": "乘降所",
    "province": "河北",
    "city": "廊坊",
    "gcjLng": 116.916649,
    "gcjLat": 39.951861,
    "wgs84Lng": 116.9107,
    "wgs84Lat": 39.950808,
    "bdLng": 116.923254,
    "bdLat": 39.957517,
    "isVip": 0.0
  },
  {
    "id": 131,
    "name": "廊坊北站",
    "address": "河北省廊坊市广阳区解放道55号",
    "ownership": "北京铁路局",
    "type": " ",
    "category": "客运站",
    "province": "河北",
    "city": "廊坊",
    "gcjLng": 116.705753,
    "gcjLat": 39.513164,
    "wgs84Lng": 116.699783,
    "wgs84Lat": 39.512033,
    "bdLng": 116.712291,
    "bdLat": 39.518937,
    "isVip": 0.0
  },
  {
    "id": 132,
    "name": "马柳",
    "address": "河北省迁安市太平庄乡",
    "ownership": "北京铁路局",
    "type": " ",
    "category": "乘降所",
    "province": "河北",
    "city": "唐山",
    "gcjLng": 118.521423,
    "gcjLat": 39.858794,
    "wgs84Lng": 118.515421,
    "wgs84Lat": 39.857593,
    "bdLng": 118.527946,
    "bdLat": 39.864785,
    "isVip": 0.0
  },
  {
    "id": 133,
    "name": "滦河站",
    "address": "河北省迁安市野鸡坨镇野鸡坨村",
    "ownership": "北京铁路局",
    "type": " ",
    "category": "客运站",
    "province": "河北",
    "city": "唐山",
    "gcjLng": 118.67154,
    "gcjLat": 39.856846,
    "wgs84Lng": 118.665592,
    "wgs84Lat": 39.855673,
    "bdLng": 118.678079,
    "bdLat": 39.862649,
    "isVip": 0.0
  },
  {
    "id": 134,
    "name": "北戴河站",
    "address": "河北省秦皇岛市北戴河区站南大街54号",
    "ownership": "北京铁路局",
    "type": " ",
    "category": "客运站",
    "province": "河北",
    "city": "秦皇岛",
    "gcjLng": 119.420096,
    "gcjLat": 39.850926,
    "wgs84Lng": 119.41378,
    "wgs84Lat": 39.849464,
    "bdLng": 119.426625,
    "bdLat": 39.856838,
    "isVip": 0.0
  },
  {
    "id": 135,
    "name": "昌黎站",
    "address": "河北省秦皇岛市昌黎县民生街南端",
    "ownership": "北京铁路局",
    "type": " ",
    "category": "客运站",
    "province": "河北",
    "city": "秦皇岛",
    "gcjLng": 119.167823,
    "gcjLat": 39.704401,
    "wgs84Lng": 119.161589,
    "wgs84Lat": 39.703035,
    "bdLng": 119.174425,
    "bdLat": 39.710099,
    "isVip": 0.0
  },
  {
    "id": 136,
    "name": "抚宁站",
    "address": "河北省秦皇岛市抚宁县迎宾路与102国道交叉环岛北200米铁工小区",
    "ownership": "北京铁路局",
    "type": " ",
    "category": "客运站",
    "province": "河北",
    "city": "秦皇岛",
    "gcjLng": 119.249191,
    "gcjLat": 39.893547,
    "wgs84Lng": 119.243067,
    "wgs84Lat": 39.892264,
    "bdLng": 119.255771,
    "bdLat": 39.899292,
    "isVip": 0.0
  },
  {
    "id": 137,
    "name": "卢龙站",
    "address": "河北省秦皇岛市卢龙县印庄乡政府北700米",
    "ownership": "北京铁路局",
    "type": " ",
    "category": "客运站",
    "province": "河北",
    "city": "秦皇岛",
    "gcjLng": 118.983571,
    "gcjLat": 39.952261,
    "wgs84Lng": 118.977519,
    "wgs84Lat": 39.95103,
    "bdLng": 118.990164,
    "bdLat": 39.957886,
    "isVip": 0.0
  },
  {
    "id": 138,
    "name": "任丘站",
    "address": "河北省任丘市渤海路1号",
    "ownership": "北京铁路局",
    "type": " ",
    "category": "客运站",
    "province": "河北",
    "city": "沧州",
    "gcjLng": 116.144326,
    "gcjLat": 38.69426,
    "wgs84Lng": 116.138225,
    "wgs84Lat": 38.693391,
    "bdLng": 116.150752,
    "bdLat": 38.700587,
    "isVip": 0.0
  },
  {
    "id": 139,
    "name": "段甲岭",
    "address": "河北省三河市段甲岭镇",
    "ownership": "北京铁路局",
    "type": " ",
    "category": "乘降所",
    "province": "河北",
    "city": "沧州",
    "gcjLng": 117.168769,
    "gcjLat": 39.986082,
    "wgs84Lng": 117.162297,
    "wgs84Lat": 39.984742,
    "bdLng": 117.175383,
    "bdLat": 39.99179,
    "isVip": 0.0
  },
  {
    "id": 140,
    "name": "三平",
    "address": "河北省三河市李旗庄镇",
    "ownership": "北京铁路局",
    "type": " ",
    "category": "乘降所",
    "province": "河北",
    "city": "沧州",
    "gcjLng": 116.996972,
    "gcjLat": 39.96175,
    "wgs84Lng": 116.99075,
    "wgs84Lat": 39.960524,
    "bdLng": 117.003562,
    "bdLat": 39.967379,
    "isVip": 0.0
  },
  {
    "id": 141,
    "name": "沙河市站",
    "address": "河北省沙河市白云路12号",
    "ownership": "北京铁路局",
    "type": " ",
    "category": "客运站",
    "province": "河北",
    "city": "邢台",
    "gcjLng": 114.497629,
    "gcjLat": 36.861134,
    "wgs84Lng": 114.491718,
    "wgs84Lat": 36.860784,
    "bdLng": 114.504161,
    "bdLat": 36.867157,
    "isVip": 0.0
  },
  {
    "id": 142,
    "name": "井店站",
    "address": "河北省涉县井店镇下庄",
    "ownership": "北京铁路局",
    "type": " ",
    "category": "客运站",
    "province": "河北",
    "city": "邯郸",
    "gcjLng": 113.722573,
    "gcjLat": 36.604957,
    "wgs84Lng": 113.716185,
    "wgs84Lat": 36.60481,
    "bdLng": 113.729015,
    "bdLat": 36.611175,
    "isVip": 0.0
  },
  {
    "id": 143,
    "name": "豆庄",
    "address": "河北省涉县木井乡豆庄村",
    "ownership": "北京铁路局",
    "type": " ",
    "category": "乘降所",
    "province": "河北",
    "city": "邯郸",
    "gcjLng": 113.847019,
    "gcjLat": 36.72974,
    "wgs84Lng": 113.840846,
    "wgs84Lat": 36.72963,
    "bdLng": 113.853454,
    "bdLat": 36.736059,
    "isVip": 0.0
  },
  {
    "id": 144,
    "name": "偏店",
    "address": "河北省涉县偏店乡",
    "ownership": "北京铁路局",
    "type": " ",
    "category": "乘降所",
    "province": "河北",
    "city": "邯郸",
    "gcjLng": 113.754052,
    "gcjLat": 36.646351,
    "wgs84Lng": 113.747663,
    "wgs84Lat": 36.646166,
    "bdLng": 113.760495,
    "bdLat": 36.652601,
    "isVip": 0.0
  },
  {
    "id": 145,
    "name": "悬钟",
    "address": "河北省涉县索堡镇悬钟村",
    "ownership": "北京铁路局",
    "type": " ",
    "category": "乘降所",
    "province": "河北",
    "city": "邯郸",
    "gcjLng": 113.578129,
    "gcjLat": 36.660098,
    "wgs84Lng": 113.571862,
    "wgs84Lat": 36.660084,
    "bdLng": 113.584629,
    "bdLat": 36.666193,
    "isVip": 0.0
  },
  {
    "id": 146,
    "name": "良村",
    "address": "河北省石家庄藁城市良村火车站",
    "ownership": "北京铁路局",
    "type": " ",
    "category": "乘降所",
    "province": "河北",
    "city": "石家庄",
    "gcjLng": 114.67403,
    "gcjLat": 38.04075,
    "wgs84Lng": 114.668146,
    "wgs84Lat": 38.040173,
    "bdLng": 114.680579,
    "bdLat": 38.046561,
    "isVip": 0.0
  },
  {
    "id": 147,
    "name": "藁城站",
    "address": "河北省石家庄藁城市迎宾大道西25号",
    "ownership": "北京铁路局",
    "type": " ",
    "category": "客运站",
    "province": "河北",
    "city": "石家庄",
    "gcjLng": 114.83249,
    "gcjLat": 38.028076,
    "wgs84Lng": 114.826618,
    "wgs84Lat": 38.027506,
    "bdLng": 114.839103,
    "bdLat": 38.033791,
    "isVip": 0.0
  },
  {
    "id": 148,
    "name": "晋州站",
    "address": "河北省石家庄晋州市沧石路南光明街1号",
    "ownership": "北京铁路局",
    "type": " ",
    "category": "客运站",
    "province": "河北",
    "city": "石家庄",
    "gcjLng": 115.032216,
    "gcjLat": 38.021218,
    "wgs84Lng": 115.026062,
    "wgs84Lat": 38.020446,
    "bdLng": 115.038809,
    "bdLat": 38.026858,
    "isVip": 0.0
  },
  {
    "id": 149,
    "name": "高邑站",
    "address": "河北省石家庄市高邑县凤中路新建大街53号",
    "ownership": "北京铁路局",
    "type": " ",
    "category": "客运站",
    "province": "河北",
    "city": "石家庄",
    "gcjLng": 114.597614,
    "gcjLat": 37.604959,
    "wgs84Lng": 114.591888,
    "wgs84Lat": 37.604427,
    "bdLng": 114.604132,
    "bdLat": 37.61085,
    "isVip": 0.0
  },
  {
    "id": 150,
    "name": "高邑西站",
    "address": "河北省石家庄市高邑县站前街1号",
    "ownership": "北京铁路局",
    "type": " ",
    "category": "客运站",
    "province": "河北",
    "city": "石家庄",
    "gcjLng": 114.531538,
    "gcjLat": 37.629868,
    "wgs84Lng": 114.525675,
    "wgs84Lat": 37.629242,
    "bdLng": 114.538053,
    "bdLat": 37.635844,
    "isVip": 0.0
  },
  {
    "id": 151,
    "name": "南峪站",
    "address": "河北省石家庄市井陉县南峪镇",
    "ownership": "北京铁路局",
    "type": " ",
    "category": "客运站",
    "province": "河北",
    "city": "石家庄",
    "gcjLng": 113.937737,
    "gcjLat": 37.990149,
    "wgs84Lng": 113.931525,
    "wgs84Lat": 37.989643,
    "bdLng": 113.944118,
    "bdLat": 37.996475,
    "isVip": 0.0
  },
  {
    "id": 152,
    "name": "井南站",
    "address": "河北省石家庄市井陉县天长镇",
    "ownership": "北京铁路局",
    "type": " ",
    "category": "客运站",
    "province": "河北",
    "city": "石家庄",
    "gcjLng": 114.023998,
    "gcjLat": 37.998485,
    "wgs84Lng": 114.017569,
    "wgs84Lat": 37.997752,
    "bdLng": 114.030366,
    "bdLat": 38.004808,
    "isVip": 0.0
  },
  {
    "id": 153,
    "name": "井陉站",
    "address": "河北省石家庄市井陉县微水镇",
    "ownership": "北京铁路局",
    "type": " ",
    "category": "客运站",
    "province": "河北",
    "city": "石家庄",
    "gcjLng": 114.137398,
    "gcjLat": 38.034812,
    "wgs84Lng": 114.130952,
    "wgs84Lat": 38.034,
    "bdLng": 114.143813,
    "bdLat": 38.041132,
    "isVip": 0.0
  },
  {
    "id": 154,
    "name": "石家庄站",
    "address": "河北省石家庄市桥西区京广西街",
    "ownership": "北京铁路局",
    "type": " ",
    "category": "客运站",
    "province": "河北",
    "city": "石家庄",
    "gcjLng": 114.48447,
    "gcjLat": 38.010514,
    "wgs84Lng": 114.478375,
    "wgs84Lat": 38.009798,
    "bdLng": 114.49099,
    "bdLat": 38.016548,
    "isVip": 0.0
  },
  {
    "id": 155,
    "name": "石家庄北站",
    "address": "河北省石家庄市新华区市庄路265号",
    "ownership": "北京铁路局",
    "type": " ",
    "category": "客运站",
    "province": "河北",
    "city": "石家庄",
    "gcjLng": 114.465388,
    "gcjLat": 38.066129,
    "wgs84Lng": 114.459212,
    "wgs84Lat": 38.065373,
    "bdLng": 114.471901,
    "bdLat": 38.072183,
    "isVip": 0.0
  },
  {
    "id": 156,
    "name": "元氏站",
    "address": "河北省石家庄市元氏县站西路26号",
    "ownership": "北京铁路局",
    "type": " ",
    "category": "客运站",
    "province": "河北",
    "city": "石家庄",
    "gcjLng": 114.544407,
    "gcjLat": 37.759504,
    "wgs84Lng": 114.538573,
    "wgs84Lat": 37.758912,
    "bdLng": 114.550929,
    "bdLat": 37.765465,
    "isVip": 0.0
  },
  {
    "id": 157,
    "name": "正定机场站",
    "address": "河北省石家庄市正定县新城铺镇合家庄村东正定机场站",
    "ownership": "北京铁路局",
    "type": " ",
    "category": "客运站",
    "province": "河北",
    "city": "石家庄",
    "gcjLng": 114.71153,
    "gcjLat": 38.252604,
    "wgs84Lng": 114.705542,
    "wgs84Lat": 38.251999,
    "bdLng": 114.718103,
    "bdLat": 38.258388,
    "isVip": 0.0
  },
  {
    "id": 158,
    "name": "迁安站",
    "address": "河北省唐山迁安市城南油井西400米",
    "ownership": "北京铁路局",
    "type": " ",
    "category": "客运站",
    "province": "河北",
    "city": "唐山",
    "gcjLng": 118.693033,
    "gcjLat": 39.92625,
    "wgs84Lng": 118.687024,
    "wgs84Lat": 39.925033,
    "bdLng": 118.699583,
    "bdLat": 39.932034,
    "isVip": 0.0
  },
  {
    "id": 159,
    "name": "富庄子",
    "address": "河北省唐山市丰润区沙流河镇",
    "ownership": "北京铁路局",
    "type": " ",
    "category": "乘降所",
    "province": "河北",
    "city": "唐山",
    "gcjLng": 117.930537,
    "gcjLat": 39.842182,
    "wgs84Lng": 117.92442,
    "wgs84Lat": 39.841098,
    "bdLng": 117.936905,
    "bdLat": 39.848517,
    "isVip": 0.0
  },
  {
    "id": 160,
    "name": "唐山北站",
    "address": "河北省唐山市丰润区迎宾路1号",
    "ownership": "北京铁路局",
    "type": " ",
    "category": "客运站",
    "province": "河北",
    "city": "唐山",
    "gcjLng": 118.119479,
    "gcjLat": 39.817058,
    "wgs84Lng": 118.11302,
    "wgs84Lat": 39.81563,
    "bdLng": 118.125867,
    "bdLat": 39.823389,
    "isVip": 0.0
  },
  {
    "id": 161,
    "name": "唐山站",
    "address": "河北省唐山市路北区站前路160号",
    "ownership": "北京铁路局",
    "type": " ",
    "category": "客运站",
    "province": "河北",
    "city": "唐山",
    "gcjLng": 118.120189,
    "gcjLat": 39.6257,
    "wgs84Lng": 118.113757,
    "wgs84Lat": 39.624298,
    "bdLng": 118.126571,
    "bdLat": 39.632028,
    "isVip": 0.0
  },
  {
    "id": 162,
    "name": "杨各庄",
    "address": "河北省唐山市滦县雷庄镇",
    "ownership": "北京铁路局",
    "type": " ",
    "category": "乘降所",
    "province": "河北",
    "city": "唐山",
    "gcjLng": 118.597488,
    "gcjLat": 39.804855,
    "wgs84Lng": 118.59166,
    "wgs84Lat": 39.803777,
    "bdLng": 118.604015,
    "bdLat": 39.810745,
    "isVip": 0.0
  },
  {
    "id": 163,
    "name": "福山寺",
    "address": "河北省唐山市滦县五店子镇",
    "ownership": "北京铁路局",
    "type": " ",
    "category": "乘降所",
    "province": "河北",
    "city": "唐山",
    "gcjLng": 118.42986,
    "gcjLat": 39.8761,
    "wgs84Lng": 118.423535,
    "wgs84Lat": 39.874669,
    "bdLng": 118.436337,
    "bdLat": 39.882182,
    "isVip": 0.0
  },
  {
    "id": 164,
    "name": "滦县站",
    "address": "河北省唐山市滦县新城燕山大街205国道北",
    "ownership": "北京铁路局",
    "type": " ",
    "category": "客运站",
    "province": "河北",
    "city": "唐山",
    "gcjLng": 118.706076,
    "gcjLat": 39.757716,
    "wgs84Lng": 118.700061,
    "wgs84Lat": 39.75649,
    "bdLng": 118.712623,
    "bdLat": 39.763488,
    "isVip": 0.0
  },
  {
    "id": 165,
    "name": "狼窝铺",
    "address": "河北省唐山市滦县榛子镇",
    "ownership": "北京铁路局",
    "type": " ",
    "category": "乘降所",
    "province": "河北",
    "city": "唐山",
    "gcjLng": 118.288448,
    "gcjLat": 39.840162,
    "wgs84Lng": 118.282261,
    "wgs84Lat": 39.838877,
    "bdLng": 118.294858,
    "bdLat": 39.84637,
    "isVip": 0.0
  },
  {
    "id": 166,
    "name": "石郎庄",
    "address": "河北省唐山市滦县榛子镇",
    "ownership": "北京铁路局",
    "type": " ",
    "category": "乘降所",
    "province": "河北",
    "city": "唐山",
    "gcjLng": 118.353291,
    "gcjLat": 39.863256,
    "wgs84Lng": 118.34698,
    "wgs84Lat": 39.861855,
    "bdLng": 118.359719,
    "bdLat": 39.8694,
    "isVip": 0.0
  },
  {
    "id": 167,
    "name": "螺山",
    "address": "河北省唐山市玉田县大安镇",
    "ownership": "北京铁路局",
    "type": " ",
    "category": "乘降所",
    "province": "河北",
    "city": "唐山",
    "gcjLng": 117.556189,
    "gcjLat": 39.924283,
    "wgs84Lng": 117.549928,
    "wgs84Lat": 39.923183,
    "bdLng": 117.562679,
    "bdLat": 39.930355,
    "isVip": 0.0
  },
  {
    "id": 168,
    "name": "玉田县站",
    "address": "河北省唐山市玉田县无终街货场路299号",
    "ownership": "北京铁路局",
    "type": " ",
    "category": "客运站",
    "province": "河北",
    "city": "唐山",
    "gcjLng": 117.735168,
    "gcjLat": 39.8826,
    "wgs84Lng": 117.728756,
    "wgs84Lat": 39.881356,
    "bdLng": 117.741577,
    "bdLat": 39.888831,
    "isVip": 0.0
  },
  {
    "id": 169,
    "name": "吴桥站",
    "address": "河北省吴桥县站前一路西端",
    "ownership": "北京铁路局",
    "type": " ",
    "category": "客运站",
    "province": "河北",
    "city": "沧州",
    "gcjLng": 116.38682,
    "gcjLat": 37.627204,
    "wgs84Lng": 116.380858,
    "wgs84Lat": 37.626269,
    "bdLng": 116.393258,
    "bdLat": 37.633315,
    "isVip": 0.0
  },
  {
    "id": 170,
    "name": "磁山站",
    "address": "河北省武安市磁山镇中孔壁村",
    "ownership": "北京铁路局",
    "type": " ",
    "category": "客运站",
    "province": "河北",
    "city": "邯郸",
    "gcjLng": 114.118415,
    "gcjLat": 36.597516,
    "wgs84Lng": 114.112095,
    "wgs84Lat": 36.597175,
    "bdLng": 114.124842,
    "bdLat": 36.603845,
    "isVip": 0.0
  },
  {
    "id": 171,
    "name": "康城",
    "address": "河北省武安市康城镇康西村",
    "ownership": "北京铁路局",
    "type": " ",
    "category": "乘降所",
    "province": "河北",
    "city": "邯郸",
    "gcjLng": 114.290729,
    "gcjLat": 36.656294,
    "wgs84Lng": 114.284709,
    "wgs84Lat": 36.656062,
    "bdLng": 114.297173,
    "bdLat": 36.662501,
    "isVip": 0.0
  },
  {
    "id": 172,
    "name": "徘徊北",
    "address": "河北省武安市徘徊镇",
    "ownership": "北京铁路局",
    "type": " ",
    "category": "乘降所",
    "province": "河北",
    "city": "邯郸",
    "gcjLng": 114.045794,
    "gcjLat": 36.6069,
    "wgs84Lng": 114.039477,
    "wgs84Lat": 36.606606,
    "bdLng": 114.05219,
    "bdLat": 36.613229,
    "isVip": 0.0
  },
  {
    "id": 173,
    "name": "什里店",
    "address": "河北省武安市石洞乡什里店村",
    "ownership": "北京铁路局",
    "type": " ",
    "category": "乘降所",
    "province": "河北",
    "city": "邯郸",
    "gcjLng": 113.943161,
    "gcjLat": 36.690358,
    "wgs84Lng": 113.93709,
    "wgs84Lat": 36.690289,
    "bdLng": 113.949561,
    "bdLat": 36.696689,
    "isVip": 0.0
  },
  {
    "id": 174,
    "name": "武安站",
    "address": "河北省武安市铁北路256号",
    "ownership": "北京铁路局",
    "type": " ",
    "category": "客运站",
    "province": "河北",
    "city": "邯郸",
    "gcjLng": 114.212481,
    "gcjLat": 36.676889,
    "wgs84Lng": 114.20641,
    "wgs84Lat": 36.67665,
    "bdLng": 114.218925,
    "bdLat": 36.683171,
    "isVip": 0.0
  },
  {
    "id": 175,
    "name": "午汲",
    "address": "河北省武安市午汲镇行孝村",
    "ownership": "北京铁路局",
    "type": " ",
    "category": "乘降所",
    "province": "河北",
    "city": "邯郸",
    "gcjLng": 114.154997,
    "gcjLat": 36.651898,
    "wgs84Lng": 114.148762,
    "wgs84Lat": 36.651575,
    "bdLng": 114.161435,
    "bdLat": 36.658216,
    "isVip": 0.0
  },
  {
    "id": 176,
    "name": "阳邑站",
    "address": "河北省武安市阳邑镇",
    "ownership": "北京铁路局",
    "type": " ",
    "category": "客运站",
    "province": "河北",
    "city": "邯郸",
    "gcjLng": 113.903393,
    "gcjLat": 36.737439,
    "wgs84Lng": 113.897332,
    "wgs84Lat": 36.737378,
    "bdLng": 113.909807,
    "bdLat": 36.74377,
    "isVip": 0.0
  },
  {
    "id": 177,
    "name": "新固镇",
    "address": "河北省武安市冶陶镇固镇村",
    "ownership": "北京铁路局",
    "type": " ",
    "category": "乘降所",
    "province": "河北",
    "city": "邯郸",
    "gcjLng": 113.982436,
    "gcjLat": 36.63722,
    "wgs84Lng": 113.976285,
    "wgs84Lat": 36.637087,
    "bdLng": 113.988827,
    "bdLat": 36.643549,
    "isVip": 0.0
  },
  {
    "id": 178,
    "name": "辛集站",
    "address": "河北省辛集市兴华路1号",
    "ownership": "北京铁路局",
    "type": " ",
    "category": "客运站",
    "province": "河北",
    "city": "石家庄",
    "gcjLng": 115.21549,
    "gcjLat": 37.905202,
    "wgs84Lng": 115.209401,
    "wgs84Lat": 37.904474,
    "bdLng": 115.222082,
    "bdLat": 37.910939,
    "isVip": 0.0
  },
  {
    "id": 179,
    "name": "南宫东站",
    "address": "河北省邢台南宫市段芦头镇",
    "ownership": "北京铁路局",
    "type": " ",
    "category": "客运站",
    "province": "河北",
    "city": "邢台",
    "gcjLng": 115.701842,
    "gcjLat": 37.175729,
    "wgs84Lng": 115.695956,
    "wgs84Lat": 37.175186,
    "bdLng": 115.708256,
    "bdLat": 37.181922,
    "isVip": 0.0
  },
  {
    "id": 180,
    "name": "邢台站",
    "address": "河北省邢台市车站北路20号",
    "ownership": "北京铁路局",
    "type": " ",
    "category": "客运站",
    "province": "河北",
    "city": "邢台",
    "gcjLng": 114.492925,
    "gcjLat": 37.06985,
    "wgs84Lng": 114.486972,
    "wgs84Lat": 37.069338,
    "bdLng": 114.499443,
    "bdLat": 37.075874,
    "isVip": 0.0
  },
  {
    "id": 181,
    "name": "邢台东站",
    "address": "河北省邢台市经济开发区振兴一路邢台东站",
    "ownership": "北京铁路局",
    "type": " ",
    "category": "客运站",
    "province": "河北",
    "city": "邢台",
    "gcjLng": 114.591991,
    "gcjLat": 37.091564,
    "wgs84Lng": 114.586319,
    "wgs84Lat": 37.091241,
    "bdLng": 114.598521,
    "bdLat": 37.097467,
    "isVip": 0.0
  },
  {
    "id": 182,
    "name": "前苇塘",
    "address": "河北省兴隆县六道河子镇前苇塘村",
    "ownership": "北京铁路局",
    "type": " ",
    "category": "乘降所",
    "province": "河北",
    "city": "承德",
    "gcjLng": 117.412513,
    "gcjLat": 40.40106,
    "wgs84Lng": 117.405777,
    "wgs84Lat": 40.399566,
    "bdLng": 117.419065,
    "bdLat": 40.406972,
    "isVip": 0.0
  },
  {
    "id": 183,
    "name": "南城司",
    "address": "河北省易县南城司乡南城司火车站",
    "ownership": "北京铁路局",
    "type": " ",
    "category": "乘降所",
    "province": "河北",
    "city": "保定",
    "gcjLng": 115.262708,
    "gcjLat": 39.549592,
    "wgs84Lng": 115.256437,
    "wgs84Lat": 39.548445,
    "bdLng": 115.269266,
    "bdLat": 39.555349,
    "isVip": 0.0
  },
  {
    "id": 184,
    "name": "奇峰塔",
    "address": "河北省易县南城司乡奇峰塔火车站",
    "ownership": "北京铁路局",
    "type": " ",
    "category": "乘降所",
    "province": "河北",
    "city": "保定",
    "gcjLng": 115.232052,
    "gcjLat": 39.490831,
    "wgs84Lng": 115.225789,
    "wgs84Lat": 39.489699,
    "bdLng": 115.238626,
    "bdLat": 39.496571,
    "isVip": 0.0
  },
  {
    "id": 185,
    "name": "大盘石",
    "address": "河北省易县紫荆关镇大盘石村大盘石火车站",
    "ownership": "北京铁路局",
    "type": " ",
    "category": "乘降所",
    "province": "河北",
    "city": "保定",
    "gcjLng": 115.091781,
    "gcjLat": 39.428072,
    "wgs84Lng": 115.085324,
    "wgs84Lat": 39.426788,
    "bdLng": 115.098371,
    "bdLat": 39.433731,
    "isVip": 0.0
  },
  {
    "id": 186,
    "name": "紫荆关",
    "address": "河北省易县紫荆关镇紫荆关火车站",
    "ownership": "北京铁路局",
    "type": " ",
    "category": "乘降所",
    "province": "河北",
    "city": "保定",
    "gcjLng": 115.177763,
    "gcjLat": 39.454371,
    "wgs84Lng": 115.171415,
    "wgs84Lat": 39.453176,
    "bdLng": 115.184359,
    "bdLat": 39.460083,
    "isVip": 0.0
  },
  {
    "id": 187,
    "name": "张家口南站",
    "address": "河北省张家口市高新区站前西大街11号",
    "ownership": "北京铁路局",
    "type": " ",
    "category": "客运站",
    "province": "河北",
    "city": "张家口",
    "gcjLng": 114.883223,
    "gcjLat": 40.752267,
    "wgs84Lng": 114.877113,
    "wgs84Lat": 40.750994,
    "bdLng": 114.889856,
    "bdLat": 40.757954,
    "isVip": 0.0
  },
  {
    "id": 188,
    "name": "官厅站",
    "address": "河北省张家口市怀来县官厅镇",
    "ownership": "北京铁路局",
    "type": " ",
    "category": "客运站",
    "province": "河北",
    "city": "张家口",
    "gcjLng": 115.585545,
    "gcjLat": 40.254003,
    "wgs84Lng": 115.579438,
    "wgs84Lat": 40.252955,
    "bdLng": 115.592033,
    "bdLat": 40.260104,
    "isVip": 0.0
  },
  {
    "id": 189,
    "name": "官厅西",
    "address": "河北省张家口市怀来县官厅镇",
    "ownership": "北京铁路局",
    "type": " ",
    "category": "乘降所",
    "province": "河北",
    "city": "张家口",
    "gcjLng": 115.579347,
    "gcjLat": 40.252881,
    "wgs84Lng": 115.573234,
    "wgs84Lat": 40.251829,
    "bdLng": 115.58584,
    "bdLat": 40.258977,
    "isVip": 0.0
  },
  {
    "id": 190,
    "name": "沙城站",
    "address": "河北省张家口市怀来县沙城镇车站街1号",
    "ownership": "北京铁路局",
    "type": " ",
    "category": "客运站",
    "province": "河北",
    "city": "张家口",
    "gcjLng": 115.515971,
    "gcjLat": 40.397297,
    "wgs84Lng": 115.509657,
    "wgs84Lat": 40.396078,
    "bdLng": 115.522507,
    "bdLat": 40.403338,
    "isVip": 0.0
  },
  {
    "id": 191,
    "name": "张家口站",
    "address": "河北省张家口市桥东区东安大街1号",
    "ownership": "北京铁路局",
    "type": " ",
    "category": "客运站",
    "province": "河北",
    "city": "张家口",
    "gcjLng": 114.882713,
    "gcjLat": 40.81055,
    "wgs84Lng": 114.876595,
    "wgs84Lat": 40.809232,
    "bdLng": 114.889343,
    "bdLat": 40.816237,
    "isVip": 0.0
  },
  {
    "id": 192,
    "name": "下花园站",
    "address": "河北省张家口市下花园区公路街7号",
    "ownership": "北京铁路局",
    "type": " ",
    "category": "客运站",
    "province": "河北",
    "city": "张家口",
    "gcjLng": 115.280063,
    "gcjLat": 40.486732,
    "wgs84Lng": 115.273652,
    "wgs84Lat": 40.485418,
    "bdLng": 115.28665,
    "bdLat": 40.492511,
    "isVip": 0.0
  },
  {
    "id": 193,
    "name": "宣化站",
    "address": "河北省张家口市宣化区车站街1号",
    "ownership": "北京铁路局",
    "type": " ",
    "category": "客运站",
    "province": "河北",
    "city": "张家口",
    "gcjLng": 115.057131,
    "gcjLat": 40.59822,
    "wgs84Lng": 115.050577,
    "wgs84Lat": 40.596721,
    "bdLng": 115.063751,
    "bdLat": 40.603872,
    "isVip": 0.0
  },
  {
    "id": 194,
    "name": "沙岭子站",
    "address": "河北省张家口市宣化区沙岭子镇二里丰村",
    "ownership": "北京铁路局",
    "type": " ",
    "category": "客运站",
    "province": "河北",
    "city": "张家口",
    "gcjLng": 114.924869,
    "gcjLat": 40.672997,
    "wgs84Lng": 114.918756,
    "wgs84Lat": 40.671776,
    "bdLng": 114.931495,
    "bdLat": 40.678662,
    "isVip": 0.0
  },
  {
    "id": 195,
    "name": "涿州东站",
    "address": "河北省涿州市高新产业开发区高铁新城涿州东站",
    "ownership": "北京铁路局",
    "type": " ",
    "category": "客运站",
    "province": "河北",
    "city": "保定",
    "gcjLng": 116.053168,
    "gcjLat": 39.459681,
    "wgs84Lng": 116.046938,
    "wgs84Lat": 39.458408,
    "bdLng": 116.059519,
    "bdLat": 39.466005,
    "isVip": 0.0
  },
  {
    "id": 196,
    "name": "涿州站",
    "address": "河北省涿州市迎宾路73号",
    "ownership": "北京铁路局",
    "type": " ",
    "category": "客运站",
    "province": "河北",
    "city": "保定",
    "gcjLng": 115.98417,
    "gcjLat": 39.481114,
    "wgs84Lng": 115.978147,
    "wgs84Lat": 39.480022,
    "bdLng": 115.990513,
    "bdLat": 39.487437,
    "isVip": 0.0
  },
  {
    "id": 197,
    "name": "德州站",
    "address": "山东省德州市德城区迎宾路甲1号",
    "ownership": "北京铁路局",
    "type": " ",
    "category": "客运站",
    "province": "山东",
    "city": "德州",
    "gcjLng": 116.288473,
    "gcjLat": 37.449347,
    "wgs84Lng": 116.282709,
    "wgs84Lat": 37.448598,
    "bdLng": 116.294877,
    "bdLat": 37.455549,
    "isVip": 0.0
  },
  {
    "id": 198,
    "name": "德州东站",
    "address": "山东省德州市经济开发区",
    "ownership": "北京铁路局",
    "type": " ",
    "category": "客运站",
    "province": "山东",
    "city": "德州",
    "gcjLng": 116.461698,
    "gcjLat": 37.409615,
    "wgs84Lng": 116.455853,
    "wgs84Lat": 37.408794,
    "bdLng": 116.468183,
    "bdLat": 37.415665,
    "isVip": 0.0
  },
  {
    "id": 199,
    "name": "大涧",
    "address": "山西省大同市灵丘县落水河乡大涧村大涧火车站",
    "ownership": "北京铁路局",
    "type": " ",
    "category": "乘降所",
    "province": "山西",
    "city": "大同",
    "gcjLng": 114.301339,
    "gcjLat": 39.480008,
    "wgs84Lng": 114.294973,
    "wgs84Lat": 39.478861,
    "bdLng": 114.307742,
    "bdLat": 39.486191,
    "isVip": 0.0
  },
  {
    "id": 200,
    "name": "南峧",
    "address": "山西省黎城县东阳关镇南峧村",
    "ownership": "北京铁路局",
    "type": " ",
    "category": "乘降所",
    "province": "山西",
    "city": "晋中",
    "gcjLng": 113.557486,
    "gcjLat": 36.573722,
    "wgs84Lng": 113.551187,
    "wgs84Lat": 36.57373,
    "bdLng": 113.564002,
    "bdLat": 36.579801,
    "isVip": 0.0
  },
  {
    "id": 201,
    "name": "水洋",
    "address": "山西省黎城县西仵乡水洋村",
    "ownership": "北京铁路局",
    "type": " ",
    "category": "乘降所",
    "province": "浙江",
    "city": "杭州",
    "gcjLng": 120.173941,
    "gcjLat": 30.247098,
    "wgs84Lng": 120.169305,
    "wgs84Lat": 30.249464,
    "bdLng": 120.180391,
    "bdLat": 30.253418,
    "isVip": 0.0
  },
  {
    "id": 202,
    "name": "云彩岭",
    "address": "山西省灵丘县落水河乡孤山村云彩岭火车站",
    "ownership": "北京铁路局",
    "type": " ",
    "category": "乘降所",
    "province": "山西",
    "city": "大同",
    "gcjLng": 114.363181,
    "gcjLat": 39.448676,
    "wgs84Lng": 114.356716,
    "wgs84Lat": 39.44743,
    "bdLng": 114.369604,
    "bdLat": 39.454803,
    "isVip": 0.0
  },
  {
    "id": 203,
    "name": "招柏",
    "address": "山西省灵丘县落水河乡招柏村招柏火车站",
    "ownership": "北京铁路局",
    "type": " ",
    "category": "乘降所",
    "province": "山西",
    "city": "大同",
    "gcjLng": 114.408933,
    "gcjLat": 39.404947,
    "wgs84Lng": 114.40246,
    "wgs84Lat": 39.403688,
    "bdLng": 114.415386,
    "bdLat": 39.411038,
    "isVip": 0.0
  },
  {
    "id": 204,
    "name": "微子镇",
    "address": "山西省潞城市微子镇乡",
    "ownership": "北京铁路局",
    "type": " ",
    "category": "乘降所",
    "province": "山西",
    "city": "长治",
    "gcjLng": 113.299647,
    "gcjLat": 36.331485,
    "wgs84Lng": 113.2931,
    "wgs84Lat": 36.331411,
    "bdLng": 113.306215,
    "bdLat": 36.33728,
    "isVip": 0.0
  },
  {
    "id": 205,
    "name": "潞城站",
    "address": "山西省潞城市站前路1号",
    "ownership": "北京铁路局",
    "type": " ",
    "category": "客运站",
    "province": "山西",
    "city": "长治",
    "gcjLng": 113.222105,
    "gcjLat": 36.320933,
    "wgs84Lng": 113.215604,
    "wgs84Lat": 36.320893,
    "bdLng": 113.228713,
    "bdLat": 36.326686,
    "isVip": 0.0
  },
  {
    "id": 206,
    "name": "阳泉站",
    "address": "山西省阳泉市德胜街130号",
    "ownership": "北京铁路局",
    "type": " ",
    "category": "客运站",
    "province": "山西",
    "city": "阳泉",
    "gcjLng": 113.592314,
    "gcjLat": 37.856291,
    "wgs84Lng": 113.585924,
    "wgs84Lat": 37.855794,
    "bdLng": 113.598778,
    "bdLat": 37.862388,
    "isVip": 0.0
  },
  {
    "id": 207,
    "name": "岩会站",
    "address": "山西省阳泉市平定县巨城镇",
    "ownership": "北京铁路局",
    "type": " ",
    "category": "客运站",
    "province": "山西",
    "city": "阳泉",
    "gcjLng": 113.741551,
    "gcjLat": 37.879634,
    "wgs84Lng": 113.73501,
    "wgs84Lat": 37.878955,
    "bdLng": 113.747967,
    "bdLat": 37.885864,
    "isVip": 0.0
  },
  {
    "id": 208,
    "name": "娘子关站",
    "address": "山西省阳泉市平定县娘子关镇",
    "ownership": "北京铁路局",
    "type": " ",
    "category": "客运站",
    "province": "山西",
    "city": "阳泉",
    "gcjLng": 113.87384,
    "gcjLat": 37.967208,
    "wgs84Lng": 113.867595,
    "wgs84Lat": 37.966711,
    "bdLng": 113.880248,
    "bdLat": 37.97353,
    "isVip": 0.0
  },
  {
    "id": 209,
    "name": "程家",
    "address": "山西省阳泉市平定县娘子关镇程家村",
    "ownership": "北京铁路局",
    "type": " ",
    "category": "乘降所",
    "province": "山西",
    "city": "阳泉",
    "gcjLng": 113.845408,
    "gcjLat": 37.922134,
    "wgs84Lng": 113.839093,
    "wgs84Lat": 37.921586,
    "bdLng": 113.851822,
    "bdLat": 37.928446,
    "isVip": 0.0
  },
  {
    "id": 210,
    "name": "阳泉北站",
    "address": "山西省阳泉市盂县水神山路1号",
    "ownership": "北京铁路局",
    "type": " ",
    "category": "客运站",
    "province": "山西",
    "city": "阳泉",
    "gcjLng": 113.438403,
    "gcjLat": 38.115346,
    "wgs84Lng": 113.431506,
    "wgs84Lat": 38.114565,
    "bdLng": 113.444945,
    "bdLat": 38.121293,
    "isVip": 0.0
  },
  {
    "id": 211,
    "name": "黎城站",
    "address": "山西省长治市黎城县广邯街2号",
    "ownership": "北京铁路局",
    "type": " ",
    "category": "客运站",
    "province": "山西",
    "city": "长治",
    "gcjLng": 113.392553,
    "gcjLat": 36.514855,
    "wgs84Lng": 113.385813,
    "wgs84Lat": 36.514565,
    "bdLng": 113.399105,
    "bdLat": 36.520745,
    "isVip": 0.0
  },
  {
    "id": 212,
    "name": "大口屯",
    "address": "天津市宝坻区大口屯乡",
    "ownership": "北京铁路局",
    "type": " ",
    "category": "乘降所",
    "province": "天津",
    "city": "宝坻区",
    "gcjLng": 117.264501,
    "gcjLat": 39.604932,
    "wgs84Lng": 117.258156,
    "wgs84Lat": 39.603725,
    "bdLng": 117.271058,
    "bdLat": 39.610686,
    "isVip": 0.0
  },
  {
    "id": 213,
    "name": "宝坻站",
    "address": "天津市宝坻区火车站路1号",
    "ownership": "北京铁路局",
    "type": " ",
    "category": "客运站",
    "province": "天津",
    "city": "宝坻区",
    "gcjLng": 117.335686,
    "gcjLat": 39.715789,
    "wgs84Lng": 117.329162,
    "wgs84Lat": 39.714456,
    "bdLng": 117.342212,
    "bdLat": 39.721598,
    "isVip": 0.0
  },
  {
    "id": 214,
    "name": "汉沟镇",
    "address": "天津市北辰区",
    "ownership": "北京铁路局",
    "type": " ",
    "category": "乘降所",
    "province": "天津",
    "city": "宝坻区",
    "gcjLng": 117.101494,
    "gcjLat": 39.297963,
    "wgs84Lng": 117.095042,
    "wgs84Lat": 39.296694,
    "bdLng": 117.108087,
    "bdLat": 39.303624,
    "isVip": 0.0
  },
  {
    "id": 215,
    "name": "北仓",
    "address": "天津市北辰区",
    "ownership": "北京铁路局",
    "type": " ",
    "category": "乘降所",
    "province": "天津",
    "city": "北辰区",
    "gcjLng": 117.152091,
    "gcjLat": 39.242861,
    "wgs84Lng": 117.145686,
    "wgs84Lat": 39.241674,
    "bdLng": 117.158693,
    "bdLat": 39.248554,
    "isVip": 0.0
  },
  {
    "id": 216,
    "name": "滨海北站",
    "address": "天津市滨海新区茶东村（滨汉公路茶淀地道口附近）",
    "ownership": "北京铁路局",
    "type": " ",
    "category": "客运站",
    "province": "天津",
    "city": "滨海新区",
    "gcjLng": 117.761599,
    "gcjLat": 39.236569,
    "wgs84Lng": 117.755277,
    "wgs84Lat": 39.235505,
    "bdLng": 117.768005,
    "bdLat": 39.242824,
    "isVip": 0.0
  },
  {
    "id": 217,
    "name": "滨海站",
    "address": "天津市滨海新区西中环快速路与华山道交叉口西侧",
    "ownership": "北京铁路局",
    "type": " ",
    "category": "客运站",
    "province": "天津",
    "city": "滨海新区",
    "gcjLng": 117.611702,
    "gcjLat": 39.081528,
    "wgs84Lng": 117.605595,
    "wgs84Lat": 39.080738,
    "bdLng": 117.618153,
    "bdLat": 39.087645,
    "isVip": 0.0
  },
  {
    "id": 218,
    "name": "军粮城",
    "address": "天津市东丽区军粮城镇",
    "ownership": "北京铁路局",
    "type": " ",
    "category": "乘降所",
    "province": "天津",
    "city": "东丽区",
    "gcjLng": 117.448673,
    "gcjLat": 39.056873,
    "wgs84Lng": 117.442168,
    "wgs84Lat": 39.055784,
    "bdLng": 117.455203,
    "bdLat": 39.062827,
    "isVip": 0.0
  },
  {
    "id": 219,
    "name": "军粮城北站",
    "address": "天津市东丽区军粮城镇新安路1号",
    "ownership": "北京铁路局",
    "type": " ",
    "category": "客运站",
    "province": "天津",
    "city": "东丽区",
    "gcjLng": 117.428441,
    "gcjLat": 39.065927,
    "wgs84Lng": 117.421897,
    "wgs84Lat": 39.064801,
    "bdLng": 117.43497,
    "bdLat": 39.071854,
    "isVip": 0.0
  },
  {
    "id": 220,
    "name": "天津站",
    "address": "天津市河北区新纬路1号",
    "ownership": "北京铁路局",
    "type": " ",
    "category": "客运站",
    "province": "天津",
    "city": "河北区",
    "gcjLng": 117.210114,
    "gcjLat": 39.135656,
    "wgs84Lng": 117.203822,
    "wgs84Lat": 39.134632,
    "bdLng": 117.216707,
    "bdLat": 39.141384,
    "isVip": 0.0
  },
  {
    "id": 221,
    "name": "天津西站",
    "address": "天津市红桥区西站前街1号",
    "ownership": "北京铁路局",
    "type": " ",
    "category": "客运站",
    "province": "天津",
    "city": "红桥区",
    "gcjLng": 117.163382,
    "gcjLat": 39.158531,
    "wgs84Lng": 117.157007,
    "wgs84Lat": 39.157413,
    "bdLng": 117.169986,
    "bdLat": 39.164233,
    "isVip": 0.0
  },
  {
    "id": 222,
    "name": "别山",
    "address": "天津市蓟县别山镇",
    "ownership": "北京铁路局",
    "type": " ",
    "category": "乘降所",
    "province": "天津",
    "city": "红桥区",
    "gcjLng": 117.478375,
    "gcjLat": 39.955575,
    "wgs84Lng": 117.471842,
    "wgs84Lat": 39.954266,
    "bdLng": 117.484903,
    "bdLat": 39.961568,
    "isVip": 0.0
  },
  {
    "id": 223,
    "name": "蓟县站",
    "address": "天津市蓟县城关镇火车站路1号",
    "ownership": "北京铁路局",
    "type": " ",
    "category": "客运站",
    "province": "天津",
    "city": "蓟县",
    "gcjLng": 117.397953,
    "gcjLat": 40.026769,
    "wgs84Lng": 117.391269,
    "wgs84Lat": 40.025338,
    "bdLng": 117.404488,
    "bdLat": 40.032657,
    "isVip": 0.0
  },
  {
    "id": 224,
    "name": "上仓",
    "address": "天津市蓟县上仓乡",
    "ownership": "北京铁路局",
    "type": " ",
    "category": "乘降所",
    "province": "天津",
    "city": "蓟县",
    "gcjLng": 117.409343,
    "gcjLat": 39.910926,
    "wgs84Lng": 117.402673,
    "wgs84Lat": 39.9095,
    "bdLng": 117.415871,
    "bdLat": 39.916826,
    "isVip": 0.0
  },
  {
    "id": 225,
    "name": "下仓",
    "address": "天津市蓟县下仓乡",
    "ownership": "北京铁路局",
    "type": " ",
    "category": "乘降所",
    "province": "天津",
    "city": "蓟县",
    "gcjLng": 117.434142,
    "gcjLat": 39.796752,
    "wgs84Lng": 117.42751,
    "wgs84Lat": 39.795354,
    "bdLng": 117.440665,
    "bdLat": 39.802684,
    "isVip": 0.0
  },
  {
    "id": 226,
    "name": "蓟县南",
    "address": "天津市蓟县洇溜乡",
    "ownership": "北京铁路局",
    "type": " ",
    "category": "乘降所",
    "province": "天津",
    "city": "蓟县",
    "gcjLng": 117.3645,
    "gcjLat": 39.992071,
    "wgs84Lng": 117.357866,
    "wgs84Lat": 39.99067,
    "bdLng": 117.371034,
    "bdLat": 39.997916,
    "isVip": 0.0
  },
  {
    "id": 227,
    "name": "静海站",
    "address": "天津市静海县东方红路与联盟大街交口",
    "ownership": "北京铁路局",
    "type": " ",
    "category": "客运站",
    "province": "天津",
    "city": "静海县",
    "gcjLng": 116.929833,
    "gcjLat": 38.932768,
    "wgs84Lng": 116.923984,
    "wgs84Lat": 38.932071,
    "bdLng": 116.936439,
    "bdLat": 38.938421,
    "isVip": 0.0
  },
  {
    "id": 228,
    "name": "唐官屯",
    "address": "天津市静海县唐官屯镇军民东路增1号",
    "ownership": "北京铁路局",
    "type": " ",
    "category": "乘降所",
    "province": "天津",
    "city": "静海县",
    "gcjLng": 116.930499,
    "gcjLat": 38.711612,
    "wgs84Lng": 116.924675,
    "wgs84Lat": 38.711029,
    "bdLng": 116.937116,
    "bdLat": 38.717267,
    "isVip": 0.0
  },
  {
    "id": 229,
    "name": "塘沽站",
    "address": "天津市塘沽区大连道2543号",
    "ownership": "北京铁路局",
    "type": " ",
    "category": "客运站",
    "province": "天津",
    "city": "滨海新区",
    "gcjLng": 117.641081,
    "gcjLat": 39.027029,
    "wgs84Lng": 117.634944,
    "wgs84Lat": 39.02624,
    "bdLng": 117.647519,
    "bdLat": 39.033171,
    "isVip": 0.0
  },
  {
    "id": 230,
    "name": "曹子里",
    "address": "天津市武清区曹子里乡",
    "ownership": "北京铁路局",
    "type": " ",
    "category": "乘降所",
    "province": "天津",
    "city": "武清区",
    "gcjLng": 117.15354,
    "gcjLat": 39.421853,
    "wgs84Lng": 117.147114,
    "wgs84Lat": 39.420582,
    "bdLng": 117.160137,
    "bdLat": 39.427546,
    "isVip": 0.0
  },
  {
    "id": 231,
    "name": "崔黄口",
    "address": "天津市武清区崔黄口乡",
    "ownership": "北京铁路局",
    "type": " ",
    "category": "乘降所",
    "province": "天津",
    "city": "武清区",
    "gcjLng": 117.201434,
    "gcjLat": 39.521555,
    "wgs84Lng": 117.195081,
    "wgs84Lat": 39.520334,
    "bdLng": 117.20802,
    "bdLat": 39.527275,
    "isVip": 0.0
  },
  {
    "id": 232,
    "name": "武清站",
    "address": "天津市武清区前进道上佛罗伦萨小镇对过",
    "ownership": "北京铁路局",
    "type": " ",
    "category": "客运站",
    "province": "天津",
    "city": "武清区",
    "gcjLng": 117.016239,
    "gcjLat": 39.372464,
    "wgs84Lng": 117.010005,
    "wgs84Lat": 39.371297,
    "bdLng": 117.022812,
    "bdLat": 39.378089,
    "isVip": 0.0
  },
  {
    "id": 233,
    "name": "杨柳青站",
    "address": "天津市西青区杨柳青镇西青道",
    "ownership": "北京铁路局",
    "type": " ",
    "category": "客运站",
    "province": "天津",
    "city": "西青区",
    "gcjLng": 117.002407,
    "gcjLat": 39.142116,
    "wgs84Lng": 116.996263,
    "wgs84Lat": 39.141114,
    "bdLng": 117.008988,
    "bdLat": 39.147743,
    "isVip": 0.0
  },
  {
    "id": 234,
    "name": "天津南站",
    "address": "天津市西青区张家窝镇",
    "ownership": "北京铁路局",
    "type": " ",
    "category": "客运站",
    "province": "天津",
    "city": "西青区",
    "gcjLng": 117.060855,
    "gcjLat": 39.057111,
    "wgs84Lng": 117.054497,
    "wgs84Lat": 39.056013,
    "bdLng": 117.067448,
    "bdLat": 39.062753,
    "isVip": 0.0
  },
  {
    "id": 235,
    "name": "旧庄窝东",
    "address": "张家口市怀来县官厅镇",
    "ownership": "北京铁路局",
    "type": " ",
    "category": "乘降所",
    "province": "河北",
    "city": "张家口",
    "gcjLng": 115.647939,
    "gcjLat": 40.16714,
    "wgs84Lng": 115.641803,
    "wgs84Lat": 40.16606,
    "bdLng": 115.654383,
    "bdLat": 40.173289,
    "isVip": 0.0
  },
  {
    "id": 236,
    "name": "旧庄窝",
    "address": "张家口市怀来县官厅镇",
    "ownership": "北京铁路局",
    "type": " ",
    "category": "乘降所",
    "province": "河北",
    "city": "张家口",
    "gcjLng": 115.639358,
    "gcjLat": 40.172368,
    "wgs84Lng": 115.633237,
    "wgs84Lat": 40.171301,
    "bdLng": 115.645807,
    "bdLat": 40.178509,
    "isVip": 0.0
  },
  {
    "id": 237,
    "name": "石板滩",
    "address": "成都市新都区石龙老路石板滩车站 ",
    "ownership": "成都铁路局",
    "type": " ",
    "category": "乘降所",
    "province": "四川",
    "city": "成都",
    "gcjLng": 104.264675,
    "gcjLat": 30.725753,
    "wgs84Lng": 104.262287,
    "wgs84Lat": 30.728298,
    "bdLng": 104.271125,
    "bdLat": 30.731968,
    "isVip": 0.0
  },
  {
    "id": 238,
    "name": "娄山关",
    "address": "贵卅省遵义市汇川区板桥缜九龙村陈家湾",
    "ownership": "成都铁路局",
    "type": " ",
    "category": "乘降所",
    "province": "贵州",
    "city": "遵义",
    "gcjLng": 106.899963,
    "gcjLat": 28.033561,
    "wgs84Lng": 106.896159,
    "wgs84Lat": 28.037156,
    "bdLng": 106.906544,
    "bdLat": 28.039256,
    "isVip": 0.0
  },
  {
    "id": 239,
    "name": "么铺",
    "address": "贵州省安顺市开发区幺铺镇",
    "ownership": "成都铁路局",
    "type": " ",
    "category": "乘降所",
    "province": "贵州",
    "city": "安顺",
    "gcjLng": 105.84081,
    "gcjLat": 26.176461,
    "wgs84Lng": 105.83745,
    "wgs84Lat": 26.179926,
    "bdLng": 105.847257,
    "bdLat": 26.182747,
    "isVip": 0.0
  },
  {
    "id": 240,
    "name": "高峰",
    "address": "贵州省安顺市平坝（县）高峰（镇）",
    "ownership": "成都铁路局",
    "type": " ",
    "category": "乘降所",
    "province": "贵州",
    "city": "安顺",
    "gcjLng": 106.345566,
    "gcjLat": 26.386724,
    "wgs84Lng": 106.341814,
    "wgs84Lat": 26.390047,
    "bdLng": 106.352039,
    "bdLat": 26.392869,
    "isVip": 0.0
  },
  {
    "id": 241,
    "name": "新平坝",
    "address": "贵州省安顺市平坝县陶官村",
    "ownership": "成都铁路局",
    "type": " ",
    "category": "乘降所",
    "province": "贵州",
    "city": "安顺",
    "gcjLng": 106.291405,
    "gcjLat": 26.408769,
    "wgs84Lng": 106.287774,
    "wgs84Lat": 26.412198,
    "bdLng": 106.297869,
    "bdLat": 26.414962,
    "isVip": 0.0
  },
  {
    "id": 242,
    "name": "平坝",
    "address": "贵州省安顺市平坝县羊昌镇",
    "ownership": "成都铁路局",
    "type": " ",
    "category": "乘降所",
    "province": "贵州",
    "city": "安顺",
    "gcjLng": 106.296723,
    "gcjLat": 26.389778,
    "wgs84Lng": 106.293083,
    "wgs84Lat": 26.393191,
    "bdLng": 106.303188,
    "bdLat": 26.395965,
    "isVip": 0.0
  },
  {
    "id": 243,
    "name": "化处",
    "address": "贵州省安顺市普定县化处镇",
    "ownership": "成都铁路局",
    "type": " ",
    "category": "乘降所",
    "province": "贵州",
    "city": "安顺",
    "gcjLng": 105.619624,
    "gcjLat": 26.209029,
    "wgs84Lng": 105.616414,
    "wgs84Lat": 26.212573,
    "bdLng": 105.626102,
    "bdLat": 26.215143,
    "isVip": 0.0
  },
  {
    "id": 244,
    "name": "天龙",
    "address": "贵州省安顺市天龙镇",
    "ownership": "成都铁路局",
    "type": " ",
    "category": "乘降所",
    "province": "贵州",
    "city": "安顺",
    "gcjLng": 106.171815,
    "gcjLat": 26.368366,
    "wgs84Lng": 106.168142,
    "wgs84Lat": 26.371716,
    "bdLng": 106.178272,
    "bdLat": 26.374649,
    "isVip": 0.0
  },
  {
    "id": 245,
    "name": "安顺",
    "address": "贵州省安顺市西秀区南华路1号",
    "ownership": "成都铁路局",
    "type": " ",
    "category": "客运站",
    "province": "贵州",
    "city": "安顺",
    "gcjLng": 105.942716,
    "gcjLat": 26.229415,
    "wgs84Lng": 105.939362,
    "wgs84Lat": 26.232941,
    "bdLng": 105.949144,
    "bdLat": 26.235723,
    "isVip": 0.0
  },
  {
    "id": 246,
    "name": "两所屯",
    "address": "贵州省安顺市西秀区七眼桥镇",
    "ownership": "成都铁路局",
    "type": " ",
    "category": "乘降所",
    "province": "贵州",
    "city": "安顺",
    "gcjLng": 106.008849,
    "gcjLat": 26.268182,
    "wgs84Lng": 106.005286,
    "wgs84Lat": 26.271553,
    "bdLng": 106.015272,
    "bdLat": 26.274491,
    "isVip": 0.0
  },
  {
    "id": 247,
    "name": "墨冲",
    "address": "贵州省都匀市墨冲镇",
    "ownership": "成都铁路局",
    "type": " ",
    "category": "乘降所",
    "province": "贵州",
    "city": "黔西南布依族苗族自治州",
    "gcjLng": 107.466718,
    "gcjLat": 26.050899,
    "wgs84Lng": 107.462397,
    "wgs84Lat": 26.05405,
    "bdLng": 107.47324,
    "bdLat": 26.056875,
    "isVip": 0.0
  },
  {
    "id": 248,
    "name": "都匀",
    "address": "贵州省都匀市小围寨王家司村",
    "ownership": "成都铁路局",
    "type": " ",
    "category": "客运站",
    "province": "贵州",
    "city": "黔西南布依族苗族自治州",
    "gcjLng": 107.515294,
    "gcjLat": 26.231958,
    "wgs84Lng": 107.51111,
    "wgs84Lat": 26.235365,
    "bdLng": 107.521816,
    "bdLat": 26.237987,
    "isVip": 0.0
  },
  {
    "id": 249,
    "name": "打羊",
    "address": "贵州省独山县打羊乡",
    "ownership": "成都铁路局",
    "type": " ",
    "category": "乘降所",
    "province": "贵州",
    "city": "黔西南布依族苗族自治州",
    "gcjLng": 107.573211,
    "gcjLat": 25.645524,
    "wgs84Lng": 107.569194,
    "wgs84Lat": 25.648684,
    "bdLng": 107.579681,
    "bdLat": 25.651596,
    "isVip": 0.0
  },
  {
    "id": 250,
    "name": "星朗",
    "address": "贵州省独山县甲里镇",
    "ownership": "成都铁路局",
    "type": " ",
    "category": "乘降所",
    "province": "贵州",
    "city": "黔西南布依族苗族自治州",
    "gcjLng": 107.493753,
    "gcjLat": 25.468066,
    "wgs84Lng": 107.489545,
    "wgs84Lat": 25.470969,
    "bdLng": 107.500248,
    "bdLat": 25.474067,
    "isVip": 0.0
  },
  {
    "id": 251,
    "name": "独山",
    "address": "贵州省独山县麻万镇",
    "ownership": "成都铁路局",
    "type": " ",
    "category": "客运站",
    "province": "贵州",
    "city": "黔西南布依族苗族自治州",
    "gcjLng": 107.547689,
    "gcjLat": 25.86409,
    "wgs84Lng": 107.543616,
    "wgs84Lat": 25.867337,
    "bdLng": 107.55418,
    "bdLat": 25.870143,
    "isVip": 0.0
  },
  {
    "id": 252,
    "name": "麻尾",
    "address": "贵州省独山县麻尾镇",
    "ownership": "成都铁路局",
    "type": " ",
    "category": "客运站",
    "province": "贵州",
    "city": "黔西南布依族苗族自治州",
    "gcjLng": 107.469269,
    "gcjLat": 25.344367,
    "wgs84Lng": 107.464996,
    "wgs84Lat": 25.347176,
    "bdLng": 107.47577,
    "bdLat": 25.350343,
    "isVip": 0.0
  },
  {
    "id": 253,
    "name": "学庄",
    "address": "贵州省独山县上司镇学庄村",
    "ownership": "成都铁路局",
    "type": " ",
    "category": "乘降所",
    "province": "贵州",
    "city": "黔西南布依族苗族自治州",
    "gcjLng": 107.56549,
    "gcjLat": 25.692538,
    "wgs84Lng": 107.56146,
    "wgs84Lat": 25.695713,
    "bdLng": 107.571965,
    "bdLat": 25.698605,
    "isVip": 0.0
  },
  {
    "id": 254,
    "name": "朱石寨",
    "address": "贵州省独山县尧棒乡",
    "ownership": "成都铁路局",
    "type": " ",
    "category": "乘降所",
    "province": "贵州",
    "city": "黔西南布依族苗族自治州",
    "gcjLng": 107.47397,
    "gcjLat": 25.389983,
    "wgs84Lng": 107.469708,
    "wgs84Lat": 25.392811,
    "bdLng": 107.48047,
    "bdLat": 25.395963,
    "isVip": 0.0
  },
  {
    "id": 255,
    "name": "黄丝",
    "address": "贵州省福泉市黄丝镇",
    "ownership": "成都铁路局",
    "type": " ",
    "category": "乘降所",
    "province": "贵州",
    "city": "黔西南布依族苗族自治州",
    "gcjLng": 107.408171,
    "gcjLat": 26.589486,
    "wgs84Lng": 107.403735,
    "wgs84Lat": 26.592793,
    "bdLng": 107.414712,
    "bdLat": 26.595399,
    "isVip": 0.0
  },
  {
    "id": 256,
    "name": "福泉",
    "address": "贵州省福泉市马场坪镇笔山路",
    "ownership": "成都铁路局",
    "type": " ",
    "category": "客运站",
    "province": "贵州",
    "city": "黔西南布依族苗族自治州",
    "gcjLng": 107.536107,
    "gcjLat": 26.625342,
    "wgs84Lng": 107.531961,
    "wgs84Lat": 26.628939,
    "bdLng": 107.542628,
    "bdLat": 26.631394,
    "isVip": 0.0
  },
  {
    "id": 257,
    "name": "高峰",
    "address": "贵州省贵安新区高峰镇黄猫村",
    "ownership": "成都铁路局",
    "type": " ",
    "category": "乘降所",
    "province": "贵州",
    "city": "黔西南布依族苗族自治州",
    "gcjLng": 106.345566,
    "gcjLat": 26.386724,
    "wgs84Lng": 106.341814,
    "wgs84Lat": 26.390047,
    "bdLng": 106.352039,
    "bdLat": 26.392869,
    "isVip": 0.0
  },
  {
    "id": 258,
    "name": "贵定南",
    "address": "贵州省贵定县昌明镇",
    "ownership": "成都铁路局",
    "type": " ",
    "category": "客运站",
    "province": "贵州",
    "city": "黔南布依族苗族自治州",
    "gcjLng": 115.011891,
    "gcjLat": 24.780704,
    "wgs84Lng": 115.007007,
    "wgs84Lat": 24.783534,
    "bdLng": 115.018461,
    "bdLat": 24.786348,
    "isVip": 0.0
  },
  {
    "id": 259,
    "name": "贵定",
    "address": "贵州省贵定县公园路",
    "ownership": "成都铁路局",
    "type": " ",
    "category": "客运站",
    "province": "贵州",
    "city": "黔南布依族苗族自治州",
    "gcjLng": 107.228706,
    "gcjLat": 26.581553,
    "wgs84Lng": 107.224545,
    "wgs84Lat": 26.585037,
    "bdLng": 107.235286,
    "bdLat": 26.587318,
    "isVip": 0.0
  },
  {
    "id": 260,
    "name": "湖潮",
    "address": "贵州省贵阳市花溪区湖潮镇",
    "ownership": "成都铁路局",
    "type": " ",
    "category": "乘降所",
    "province": "贵州",
    "city": "贵阳",
    "gcjLng": 106.523013,
    "gcjLat": 26.443056,
    "wgs84Lng": 106.519405,
    "wgs84Lat": 26.446593,
    "bdLng": 106.529548,
    "bdLat": 26.449047,
    "isVip": 0.0
  },
  {
    "id": 261,
    "name": "贵阳",
    "address": "贵州省贵阳市南明区遵义路296号",
    "ownership": "成都铁路局",
    "type": " ",
    "category": "客运站",
    "province": "贵州",
    "city": "贵阳",
    "gcjLng": 106.703343,
    "gcjLat": 26.556719,
    "wgs84Lng": 106.699594,
    "wgs84Lat": 26.560252,
    "bdLng": 106.7099,
    "bdLat": 26.562526,
    "isVip": 0.0
  },
  {
    "id": 262,
    "name": "息烽",
    "address": "贵州省贵阳市息烽县永靖镇环城路？",
    "ownership": "成都铁路局",
    "type": " ",
    "category": "客运站",
    "province": "贵州",
    "city": "贵阳",
    "gcjLng": 106.747326,
    "gcjLat": 27.078034,
    "wgs84Lng": 106.743477,
    "wgs84Lat": 27.081468,
    "bdLng": 106.753875,
    "bdLat": 27.083808,
    "isVip": 0.0
  },
  {
    "id": 263,
    "name": "宝老山",
    "address": "贵州省黄平县谷陇镇",
    "ownership": "成都铁路局",
    "type": " ",
    "category": "乘降所",
    "province": "贵州",
    "city": "黔东南",
    "gcjLng": 108.062838,
    "gcjLat": 26.8322,
    "wgs84Lng": 108.058478,
    "wgs84Lat": 26.835519,
    "bdLng": 108.069262,
    "bdLat": 26.838513,
    "isVip": 0.0
  },
  {
    "id": 264,
    "name": "黄平",
    "address": "贵州省黄平县谷陇镇",
    "ownership": "成都铁路局",
    "type": " ",
    "category": "乘降所",
    "province": "贵州",
    "city": "黔东南",
    "gcjLng": 108.100356,
    "gcjLat": 26.867086,
    "wgs84Lng": 108.095975,
    "wgs84Lat": 26.870371,
    "bdLng": 108.106789,
    "bdLat": 26.873397,
    "isVip": 0.0
  },
  {
    "id": 265,
    "name": "凯里",
    "address": "贵州省凯里市清江路88号",
    "ownership": "成都铁路局",
    "type": " ",
    "category": "客运站",
    "province": "贵州",
    "city": "黔东南",
    "gcjLng": 107.976389,
    "gcjLat": 26.602787,
    "wgs84Lng": 107.97227,
    "wgs84Lat": 26.606343,
    "bdLng": 107.982817,
    "bdLat": 26.609102,
    "isVip": 0.0
  },
  {
    "id": 266,
    "name": "加劳",
    "address": "贵州省凯里市湾水镇",
    "ownership": "成都铁路局",
    "type": " ",
    "category": "乘降所",
    "province": "贵州",
    "city": "凯里",
    "gcjLng": 108.009584,
    "gcjLat": 26.731123,
    "wgs84Lng": 108.005358,
    "wgs84Lat": 26.734583,
    "bdLng": 108.016006,
    "bdLat": 26.737438,
    "isVip": 0.0
  },
  {
    "id": 267,
    "name": "桐木寨",
    "address": "贵州省凯里市湾水镇",
    "ownership": "成都铁路局",
    "type": " ",
    "category": "乘降所",
    "province": "贵州",
    "city": "凯里",
    "gcjLng": 107.997509,
    "gcjLat": 26.681998,
    "wgs84Lng": 107.993323,
    "wgs84Lat": 26.685497,
    "bdLng": 108.003933,
    "bdLat": 26.688314,
    "isVip": 0.0
  },
  {
    "id": 268,
    "name": "六个鸡",
    "address": "贵州省凯里市县炉山镇",
    "ownership": "成都铁路局",
    "type": " ",
    "category": "乘降所",
    "province": "贵州",
    "city": "凯里",
    "gcjLng": 107.784487,
    "gcjLat": 26.571212,
    "wgs84Lng": 107.780266,
    "wgs84Lat": 26.574719,
    "bdLng": 107.79095,
    "bdLat": 26.577473,
    "isVip": 0.0
  },
  {
    "id": 269,
    "name": "六枝",
    "address": "贵州省六盘水市六枝特区平寨镇交通西路",
    "ownership": "成都铁路局",
    "type": " ",
    "category": "客运站",
    "province": "贵州",
    "city": "六盘水",
    "gcjLng": 105.464522,
    "gcjLat": 26.225605,
    "wgs84Lng": 105.461106,
    "wgs84Lat": 26.228884,
    "bdLng": 105.471051,
    "bdLat": 26.231579,
    "isVip": 0.0
  },
  {
    "id": 270,
    "name": "马嘎",
    "address": "贵州省六盘水市水城县双嘎乡",
    "ownership": "成都铁路局",
    "type": " ",
    "category": "乘降所",
    "province": "贵州",
    "city": "六盘水",
    "gcjLng": 104.773016,
    "gcjLat": 26.622468,
    "wgs84Lng": 104.770441,
    "wgs84Lat": 26.626002,
    "bdLng": 104.779594,
    "bdLat": 26.628236,
    "isVip": 0.0
  },
  {
    "id": 271,
    "name": "水城",
    "address": "贵州省六盘水市钟山区水城县境内",
    "ownership": "成都铁路局",
    "type": " ",
    "category": "乘降所",
    "province": "贵州",
    "city": "六盘水",
    "gcjLng": 104.892157,
    "gcjLat": 26.575299,
    "wgs84Lng": 104.889644,
    "wgs84Lat": 26.579,
    "bdLng": 104.89875,
    "bdLat": 26.581007,
    "isVip": 0.0
  },
  {
    "id": 272,
    "name": "六盘水",
    "address": "贵州省六盘水市钟山区水西路",
    "ownership": "成都铁路局",
    "type": " ",
    "category": "客运站",
    "province": "贵州",
    "city": "六盘水",
    "gcjLng": 104.851559,
    "gcjLat": 26.591362,
    "wgs84Lng": 104.84904,
    "wgs84Lat": 26.59502,
    "bdLng": 104.858151,
    "bdLat": 26.59709,
    "isVip": 0.0
  },
  {
    "id": 273,
    "name": "那玉",
    "address": "贵州省六枝特区平寨镇境内",
    "ownership": "成都铁路局",
    "type": " ",
    "category": "乘降所",
    "province": "贵州",
    "city": "六盘水",
    "gcjLng": 105.426829,
    "gcjLat": 26.250862,
    "wgs84Lng": 105.423363,
    "wgs84Lat": 26.254086,
    "bdLng": 105.433362,
    "bdLat": 26.256796,
    "isVip": 0.0
  },
  {
    "id": 274,
    "name": "关寨",
    "address": "贵州省六枝特区箐口乡境内",
    "ownership": "成都铁路局",
    "type": " ",
    "category": "乘降所",
    "province": "贵州",
    "city": "六盘水",
    "gcjLng": 105.223715,
    "gcjLat": 26.283988,
    "wgs84Lng": 105.220617,
    "wgs84Lat": 26.287391,
    "bdLng": 105.230291,
    "bdLat": 26.289753,
    "isVip": 0.0
  },
  {
    "id": 275,
    "name": "高坪铺",
    "address": "贵州省龙里县",
    "ownership": "成都铁路局",
    "type": " ",
    "category": "乘降所",
    "province": "贵州",
    "city": "六盘水",
    "gcjLng": 107.143066,
    "gcjLat": 26.514196,
    "wgs84Lng": 107.138807,
    "wgs84Lat": 26.517532,
    "bdLng": 107.149661,
    "bdLat": 26.519917,
    "isVip": 0.0
  },
  {
    "id": 276,
    "name": "麻江",
    "address": "贵州省麻江县碧波镇白秧坪村",
    "ownership": "成都铁路局",
    "type": " ",
    "category": "乘降所",
    "province": "贵州",
    "city": "黔东南",
    "gcjLng": 107.450761,
    "gcjLat": 26.469192,
    "wgs84Lng": 107.446378,
    "wgs84Lat": 26.472525,
    "bdLng": 107.457302,
    "bdLat": 26.475154,
    "isVip": 0.0
  },
  {
    "id": 277,
    "name": "普定",
    "address": "贵州省普定县城关镇斗篷村石堡寨",
    "ownership": "成都铁路局",
    "type": " ",
    "category": "乘降所",
    "province": "贵州",
    "city": "安顺",
    "gcjLng": 105.712351,
    "gcjLat": 26.283009,
    "wgs84Lng": 105.708927,
    "wgs84Lat": 26.286444,
    "bdLng": 105.718811,
    "bdLat": 26.289203,
    "isVip": 0.0
  },
  {
    "id": 278,
    "name": "黄桶",
    "address": "贵州省普定县马关镇黄桶村",
    "ownership": "成都铁路局",
    "type": " ",
    "category": "乘降所",
    "province": "贵州",
    "city": "安顺",
    "gcjLng": 105.685757,
    "gcjLat": 26.197736,
    "wgs84Lng": 105.682396,
    "wgs84Lat": 26.201166,
    "bdLng": 105.692217,
    "bdLat": 26.203906,
    "isVip": 0.0
  },
  {
    "id": 279,
    "name": "龙里",
    "address": "贵州省黔南苗族自治州龙里县",
    "ownership": "成都铁路局",
    "type": " ",
    "category": "客运站",
    "province": "贵州",
    "city": "黔东南",
    "gcjLng": 106.969456,
    "gcjLat": 26.451099,
    "wgs84Lng": 106.965582,
    "wgs84Lat": 26.454654,
    "bdLng": 106.976041,
    "bdLat": 26.456773,
    "isVip": 0.0
  },
  {
    "id": 280,
    "name": "老罗堡",
    "address": "贵州省黔南州龙里县老罗堡村",
    "ownership": "成都铁路局",
    "type": " ",
    "category": "乘降所",
    "province": "贵州",
    "city": "黔东南",
    "gcjLng": 106.903044,
    "gcjLat": 26.461626,
    "wgs84Lng": 106.899325,
    "wgs84Lat": 26.465282,
    "bdLng": 106.909637,
    "bdLat": 26.467324,
    "isVip": 0.0
  },
  {
    "id": 281,
    "name": "施秉",
    "address": "贵州省施秉县杨柳塘镇屯上村",
    "ownership": "成都铁路局",
    "type": " ",
    "category": "客运站",
    "province": "贵州",
    "city": "黔东南",
    "gcjLng": 108.134225,
    "gcjLat": 26.917155,
    "wgs84Lng": 108.12988,
    "wgs84Lat": 26.920456,
    "bdLng": 108.140664,
    "bdLat": 26.923459,
    "isVip": 0.0
  },
  {
    "id": 282,
    "name": "茨冲",
    "address": "贵州省水城县陡箐乡境内",
    "ownership": "成都铁路局",
    "type": " ",
    "category": "乘降所",
    "province": "贵州",
    "city": "六盘水",
    "gcjLng": 105.109279,
    "gcjLat": 26.492268,
    "wgs84Lng": 105.10611,
    "wgs84Lat": 26.495585,
    "bdLng": 105.115871,
    "bdLat": 26.497977,
    "isVip": 0.0
  },